Country,City,AQI Value,AQI Category,CO AQI Value,CO AQI Category,Ozone AQI Value,Ozone AQI Category,NO2 AQI Value,NO2 AQI Category,PM2.5 AQI Value,PM2.5 AQI Category,lat,lng,NEW_Country,NEW_City
Brazil,Presidente Dutra,41,Good,1,Good,5,Good,1,Good,41,Good,-5.29,-44.49,Brazil,Presidente Dutra
Brazil,Presidente Dutra,41,Good,1,Good,5,Good,1,Good,41,Good,-11.2958,-41.9869,Brazil,Presidente Dutra
United States of America,Punta Gorda,54,Moderate,1,Good,14,Good,11,Good,54,Moderate,16.1005,-88.8074,Belize,Punta Gorda Town
United States of America,Punta Gorda,54,Moderate,1,Good,14,Good,11,Good,54,Moderate,26.8941,-82.0513,United States,Charlotte Park
United States of America,Pontiac,77,Moderate,2,Good,22,Good,15,Good,77,Moderate,42.6493,-83.2878,United States,Pontiac
United States of America,Pontiac,77,Moderate,2,Good,22,Good,15,Good,77,Moderate,40.8894,-88.6409,United States,Livingston County
United States of America,Dayton,45,Good,1,Good,32,Good,7,Good,45,Good,39.7805,-84.2003,United States,Dayton
United States of America,Dayton,45,Good,1,Good,32,Good,7,Good,45,Good,39.2592,-119.5653,United States,Dayton
United States of America,Dayton,45,Good,1,Good,32,Good,7,Good,45,Good,30.0315,-94.9158,United States,Dayton
United Kingdom of Great Britain and Northern Ireland,Denton,55,Moderate,0,Good,32,Good,1,Good,55,Moderate,33.2175,-97.1418,United States,Denton
United Kingdom of Great Britain and Northern Ireland,Denton,55,Moderate,0,Good,32,Good,1,Good,55,Moderate,53.4554,-2.1122,United Kingdom,Tameside
United States of America,Green Valley,44,Good,1,Good,14,Good,8,Good,44,Good,31.8393,-111.0009,United States,Green Valley
United States of America,Green Valley,44,Good,1,Good,14,Good,8,Good,44,Good,39.3414,-77.24,United States,Sugarloaf Overlook
United States of America,Harrison,90,Moderate,1,Good,25,Good,2,Good,90,Moderate,40.7431,-74.1531,United States,Harrison
United States of America,Harrison,90,Moderate,1,Good,25,Good,2,Good,90,Moderate,41.0236,-73.7193,United States,Town/Village of Harrison
United States of America,Harrison,90,Moderate,1,Good,25,Good,2,Good,90,Moderate,36.2438,-93.1198,United States,Harrison
United States of America,Harrison,90,Moderate,1,Good,25,Good,2,Good,90,Moderate,39.2584,-84.7868,United States,Harrison
United States of America,Harrison,90,Moderate,1,Good,25,Good,2,Good,90,Moderate,44.1935,-88.2941,United States,Village of Harrison
United States of America,Harrison,90,Moderate,1,Good,25,Good,2,Good,90,Moderate,40.6374,-79.7173,United States,Harrison Township
United States of America,Taunton,41,Good,1,Good,28,Good,10,Good,41,Good,51.019,-3.1,United Kingdom,Taunton
United States of America,Taunton,41,Good,1,Good,28,Good,10,Good,41,Good,41.9036,-71.0943,United States,Taunton
United States of America,Trenton,53,Moderate,1,Good,28,Good,10,Good,53,Moderate,40.2237,-74.7641,United States,Trenton
United States of America,Trenton,53,Moderate,1,Good,28,Good,10,Good,53,Moderate,42.1394,-83.1929,United States,Trenton
United States of America,Trenton,53,Moderate,1,Good,28,Good,10,Good,53,Moderate,39.4792,-84.462,United States,Trenton
United States of America,Willowbrook,126,Unhealthy for Sensitive Groups,4,Good,3,Good,36,Good,126,Unhealthy for Sensitive Groups,33.9209,-118.2356,United States,Los Angeles County
United States of America,Willowbrook,126,Unhealthy for Sensitive Groups,4,Good,3,Good,36,Good,126,Unhealthy for Sensitive Groups,41.7641,-87.9454,United States,Willowbrook
China,Fuzhou,168,Unhealthy,3,Good,168,Unhealthy,5,Good,99,Moderate,27.9814,116.3577,China,Qingyun Subdistrict
China,Fuzhou,168,Unhealthy,3,Good,168,Unhealthy,5,Good,99,Moderate,26.0769,119.2917,China,Gulou District
Portugal,Gondomar,27,Good,0,Good,27,Good,2,Good,21,Good,41.15,-8.5333,Portugal,Gondomar
Portugal,Gondomar,27,Good,0,Good,27,Good,2,Good,21,Good,42.1111,-8.7611,Spain,Gondomar
United States of America,Holly Springs,42,Good,1,Good,42,Good,2,Good,37,Good,35.6526,-78.8399,United States,Holly Springs
United States of America,Holly Springs,42,Good,1,Good,42,Good,2,Good,37,Good,34.1681,-84.4847,United States,Holly Springs
China,Zhongshan,98,Moderate,3,Good,33,Good,9,Good,98,Moderate,22.5333,113.35,China,Zhongshan
China,Zhongshan,98,Moderate,3,Good,33,Good,9,Good,98,Moderate,34.943,105.8771,China,Zhongshan
Canada,Alma,55,Moderate,1,Good,27,Good,0,Good,55,Moderate,48.55,-71.65,Canada,Alma
Canada,Alma,55,Moderate,1,Good,27,Good,0,Good,55,Moderate,43.3799,-84.6556,United States,Alma
United States of America,Antioch,76,Moderate,3,Good,7,Good,25,Good,76,Moderate,37.9787,-121.796,United States,Antioch
United States of America,Antioch,76,Moderate,3,Good,7,Good,25,Good,76,Moderate,42.4742,-88.0721,United States,Antioch
United Kingdom of Great Britain and Northern Ireland,Ayr,29,Good,1,Good,29,Good,2,Good,20,Good,55.458,-4.629,United Kingdom,Ayr
United Kingdom of Great Britain and Northern Ireland,Ayr,29,Good,1,Good,29,Good,2,Good,20,Good,-19.5744,147.4066,Australia,Ayr
United States of America,Bedford,56,Moderate,1,Good,18,Good,6,Good,56,Moderate,52.135,-0.47,United Kingdom,Bedford
United States of America,Bedford,56,Moderate,1,Good,18,Good,6,Good,56,Moderate,32.8464,-97.135,United States,Bedford
United States of America,Bedford,56,Moderate,1,Good,18,Good,6,Good,56,Moderate,42.9406,-71.5302,United States,Bedford
United States of America,Bedford,56,Moderate,1,Good,18,Good,6,Good,56,Moderate,41.225,-73.6673,United States,Town of Bedford
United States of America,Bedford,56,Moderate,1,Good,18,Good,6,Good,56,Moderate,42.4969,-71.2783,United States,Bedford
United States of America,Bedford,56,Moderate,1,Good,18,Good,6,Good,56,Moderate,38.8602,-86.4895,United States,Bedford
United States of America,Bedford,56,Moderate,1,Good,18,Good,6,Good,56,Moderate,41.3919,-81.536,United States,Bedford
Philippines,Baras,51,Moderate,1,Good,27,Good,1,Good,51,Moderate,14.5167,121.2667,Philippines,Baras
Philippines,Baras,51,Moderate,1,Good,27,Good,1,Good,51,Moderate,13.6667,124.3667,Philippines,Nagbarorong
United Kingdom of Great Britain and Northern Ireland,Norwich,29,Good,0,Good,29,Good,3,Good,18,Good,52.6286,1.2928,United Kingdom,Norwich
United Kingdom of Great Britain and Northern Ireland,Norwich,29,Good,0,Good,29,Good,3,Good,18,Good,41.5495,-72.0882,United States,Norwich
United Kingdom of Great Britain and Northern Ireland,Norwich,29,Good,0,Good,29,Good,3,Good,18,Good,42.9833,-80.6,Canada,Norwich
United States of America,Oakdale,53,Moderate,1,Good,24,Good,9,Good,53,Moderate,44.9876,-92.9641,United States,Oakdale
United States of America,Oakdale,53,Moderate,1,Good,24,Good,9,Good,53,Moderate,37.7618,-120.8468,United States,Oakdale
United States of America,Pasadena,58,Moderate,1,Good,43,Good,5,Good,58,Moderate,29.6575,-95.1498,United States,Pasadena
United States of America,Pasadena,58,Moderate,1,Good,43,Good,5,Good,58,Moderate,34.1597,-118.139,United States,Pasadena
United States of America,Pasadena,58,Moderate,1,Good,43,Good,5,Good,58,Moderate,39.1552,-76.5537,United States,Pasadena
United States of America,Pelham,46,Good,1,Good,46,Good,2,Good,31,Good,40.9,-73.8063,United States,Village of Pelham Manor
United States of America,Pelham,46,Good,1,Good,46,Good,2,Good,31,Good,33.3114,-86.7573,United States,Pelham
United States of America,Pelham,46,Good,1,Good,46,Good,2,Good,31,Good,43.0333,-79.3333,Canada,Pelham
United States of America,Pelham,46,Good,1,Good,46,Good,2,Good,31,Good,42.7335,-71.324,United States,Pelham
Russian Federation,Rostov,32,Good,1,Good,32,Good,0,Good,26,Good,47.2333,39.7,Russia,Rostov-on-Don
Russian Federation,Rostov,32,Good,1,Good,32,Good,0,Good,26,Good,57.1833,39.4167,Russia,Rostov
Brazil,Salvador,30,Good,0,Good,16,Good,1,Good,30,Good,-12.9747,-38.4767,Brazil,Salvador
Brazil,Salvador,30,Good,0,Good,16,Good,1,Good,30,Good,20.2094,-75.2231,Cuba,El Salvador
India,Phulpur,226,Very Unhealthy,1,Good,48,Good,1,Good,226,Very Unhealthy,24.955,90.3573,Bangladesh,Phulpur
India,Phulpur,226,Very Unhealthy,1,Good,48,Good,1,Good,226,Very Unhealthy,25.55,82.1,India,Phoolpur
Brazil,Picos,16,Good,0,Good,12,Good,0,Good,16,Good,15.083,-23.632,Cape Verde,Picos
Brazil,Picos,16,Good,0,Good,12,Good,0,Good,16,Good,-7.0769,-41.4669,Brazil,Picos
United States of America,Richmond,76,Moderate,2,Good,15,Good,17,Good,76,Moderate,37.5295,-77.4756,United States,Richmond
United States of America,Richmond,76,Moderate,2,Good,15,Good,17,Good,76,Moderate,49.1667,-123.1333,Canada,Richmond
United States of America,Richmond,76,Moderate,2,Good,15,Good,17,Good,76,Moderate,37.9477,-122.3389,United States,Richmond
United States of America,Richmond,76,Moderate,2,Good,15,Good,17,Good,76,Moderate,-41.3333,173.1833,New Zealand,Richmond
United States of America,Richmond,76,Moderate,2,Good,15,Good,17,Good,76,Moderate,39.8318,-84.8905,United States,Richmond
United States of America,Richmond,76,Moderate,2,Good,15,Good,17,Good,76,Moderate,37.7307,-84.2925,United States,Richmond
United States of America,Richmond,76,Moderate,2,Good,15,Good,17,Good,76,Moderate,51.456,-0.301,United Kingdom,London
United States of America,Richmond,76,Moderate,2,Good,15,Good,17,Good,76,Moderate,29.5824,-95.7563,United States,Richmond
United States of America,Richmond,76,Moderate,2,Good,15,Good,17,Good,76,Moderate,-33.5983,150.7511,Australia,Sydney
United States of America,Richmond,76,Moderate,2,Good,15,Good,17,Good,76,Moderate,-20.7305,143.1425,Australia,Richmond
Guyana,Georgetown,27,Good,0,Good,19,Good,0,Good,27,Good,6.8058,-58.1508,Guyana,City of Georgetown
Guyana,Georgetown,27,Good,0,Good,19,Good,0,Good,27,Good,-7.9286,-14.4119,"Saint Helena, Ascension and Tristan da Cunha",Georgetown
Guyana,Georgetown,27,Good,0,Good,19,Good,0,Good,27,Good,30.666,-97.6966,United States,Georgetown
Guyana,Georgetown,27,Good,0,Good,19,Good,0,Good,27,Good,38.2247,-84.5487,United States,Georgetown
Guyana,Georgetown,27,Good,0,Good,19,Good,0,Good,27,Good,31.9849,-81.226,United States,Georgetown
Guyana,Georgetown,27,Good,0,Good,19,Good,0,Good,27,Good,-18.3,143.55,Australia,Georgetown
United States of America,Lakeside,57,Moderate,2,Good,22,Good,14,Good,57,Moderate,30.1356,-81.7674,United States,Lakeside
United States of America,Lakeside,57,Moderate,2,Good,22,Good,14,Good,57,Moderate,32.856,-116.904,United States,Lakeside
United States of America,Lakeside,57,Moderate,2,Good,22,Good,14,Good,57,Moderate,37.6132,-77.4768,United States,Henrico County
Philippines,Lucena,32,Good,1,Good,29,Good,0,Good,32,Good,13.9333,121.6167,Philippines,Lucena
Philippines,Lucena,32,Good,1,Good,29,Good,0,Good,32,Good,37.4,-4.4833,Spain,Lucena
Philippines,Lucena,32,Good,1,Good,29,Good,0,Good,32,Good,10.8833,122.6,Philippines,Dawis
Philippines,Lucena,32,Good,1,Good,29,Good,0,Good,32,Good,-6.9,-34.8689,Brazil,Lucena
United States of America,Maitland,53,Moderate,1,Good,18,Good,14,Good,53,Moderate,28.6295,-81.3718,United States,Maitland
United States of America,Maitland,53,Moderate,1,Good,18,Good,14,Good,53,Moderate,-32.7167,151.55,Australia,Newcastle-Maitland
Germany,Hamburg,34,Good,0,Good,28,Good,2,Good,34,Good,53.55,10.0,Germany,Hamburg
Germany,Hamburg,34,Good,0,Good,28,Good,2,Good,34,Good,42.7394,-78.8581,United States,Town of Hamburg
United States of America,Hoboken,61,Moderate,1,Good,27,Good,11,Good,61,Moderate,40.7452,-74.0281,United States,Hoboken
United States of America,Hoboken,61,Moderate,1,Good,27,Good,11,Good,61,Moderate,51.1667,4.3667,Belgium,Antwerp
Russian Federation,Kola,30,Good,1,Good,30,Good,0,Good,10,Good,22.43,87.87,India,Kolaghat
Russian Federation,Kola,30,Good,1,Good,30,Good,0,Good,10,Good,68.8833,33.0833,Russia,Murmansk
Russian Federation,Krasnyy Yar,34,Good,1,Good,34,Good,1,Good,24,Good,46.5331,48.3456,Russia,Krasniy Yar
Russian Federation,Krasnyy Yar,34,Good,1,Good,34,Good,1,Good,24,Good,53.3239,69.2525,Kazakhstan,Kokshetau
Japan,Kushiro,33,Good,1,Good,33,Good,0,Good,9,Good,42.9833,144.3833,Japan,Kushiro
Japan,Kushiro,33,Good,1,Good,33,Good,0,Good,9,Good,42.9961,144.4661,Japan,Kushiro
Mexico,Jilotepec,95,Moderate,2,Good,9,Good,9,Good,95,Moderate,19.9519,-99.5328,Mexico,Jilotepec de Molina Enriquez
Mexico,Jilotepec,95,Moderate,2,Good,9,Good,9,Good,95,Moderate,19.6113,-96.9224,Mexico,Vista Hermosa Primera Manzana
United States of America,Kettering,53,Moderate,1,Good,31,Good,6,Good,53,Moderate,52.3931,-0.7229,United Kingdom,Kettering
United States of America,Kettering,53,Moderate,1,Good,31,Good,6,Good,53,Moderate,39.6956,-84.1494,United States,Kettering
United States of America,Kettering,53,Moderate,1,Good,31,Good,6,Good,53,Moderate,38.8888,-76.7889,United States,Prince George's County
Argentina,Mercedes,14,Good,1,Good,14,Good,0,Good,3,Good,-33.25,-58.0333,Uruguay,Mercedes
Argentina,Mercedes,14,Good,1,Good,14,Good,0,Good,3,Good,-34.65,-59.4333,Argentina,Mercedes
Argentina,Mercedes,14,Good,1,Good,14,Good,0,Good,3,Good,14.1093,123.0109,Philippines,Mercedes
Argentina,Mercedes,14,Good,1,Good,14,Good,0,Good,3,Good,-29.2,-58.0833,Argentina,Municipio de Mercedes
Argentina,Mercedes,14,Good,1,Good,14,Good,0,Good,3,Good,26.1533,-97.9128,United States,Mercedes
Uruguay,Minas,22,Good,0,Good,19,Good,0,Good,22,Good,-34.3667,-55.2333,Uruguay,Minas
Uruguay,Minas,22,Good,0,Good,19,Good,0,Good,22,Good,21.4894,-77.605,Cuba,Minas
United States of America,Moscow,30,Good,1,Good,19,Good,4,Good,30,Good,55.7558,37.6178,Russia,Moscow
United States of America,Moscow,30,Good,1,Good,19,Good,4,Good,30,Good,46.7308,-116.9986,United States,Moscow
India,Mudhol,73,Moderate,0,Good,24,Good,0,Good,73,Moderate,18.9667,77.9167,India,Taroda
India,Mudhol,73,Moderate,0,Good,24,Good,0,Good,73,Moderate,15.6406,75.9531,India,Mudhola
India,Mudhol,73,Moderate,0,Good,24,Good,0,Good,73,Moderate,16.35,75.2833,India,Mudhol
Germany,Neustadt,33,Good,0,Good,33,Good,0,Good,32,Good,49.35,8.15,Germany,Neustadt an der Weinstraße
Germany,Neustadt,33,Good,0,Good,33,Good,0,Good,32,Good,49.5967,10.6089,Germany,Ehe
Germany,Neustadt,33,Good,0,Good,33,Good,0,Good,32,Good,51.0239,14.2167,Germany,Neustadt in Sachsen
Germany,Neustadt,33,Good,0,Good,33,Good,0,Good,32,Good,50.85,9.1167,Germany,Neustadt
Germany,Neustadt,33,Good,0,Good,33,Good,0,Good,32,Good,50.7333,11.75,Germany,Neustadt an der Orla
United States of America,Littleton,74,Moderate,1,Good,8,Good,13,Good,74,Moderate,39.5915,-105.0188,United States,Littleton
United States of America,Littleton,74,Moderate,1,Good,8,Good,13,Good,74,Moderate,42.535,-71.4891,United States,Littleton
United States of America,Leominster,30,Good,1,Good,30,Good,3,Good,22,Good,42.5209,-71.7717,United States,Leominster
United States of America,Leominster,30,Good,1,Good,30,Good,3,Good,22,Good,52.2282,-2.7385,United Kingdom,Leominster
Spain,Murcia,29,Good,1,Good,29,Good,2,Good,20,Good,37.9861,-1.1303,Spain,Murcia
Spain,Murcia,29,Good,1,Good,29,Good,2,Good,20,Good,10.6,123.0333,Philippines,Abo-abo
United States of America,Lockhart,47,Good,1,Good,21,Good,2,Good,47,Good,29.8785,-97.6831,United States,Lockhart
United States of America,Lockhart,47,Good,1,Good,21,Good,2,Good,47,Good,28.627,-81.4354,United States,Lockhart
Russian Federation,Krasnogorsk,61,Moderate,1,Good,24,Good,10,Good,61,Moderate,55.8217,37.3386,Russia,Krasnogorsk
Russian Federation,Krasnogorsk,61,Moderate,1,Good,24,Good,10,Good,61,Moderate,48.4172,142.0869,Russia,Красногорск
Ecuador,El Carmen,79,Moderate,3,Good,5,Good,9,Good,79,Moderate,13.7167,-88.9,El Salvador,El Carmen
Ecuador,El Carmen,79,Moderate,3,Good,5,Good,9,Good,79,Moderate,13.35,-88.0,El Salvador,El Carmen
Ecuador,El Carmen,79,Moderate,3,Good,5,Good,9,Good,79,Moderate,8.5128,-73.4508,Colombia,El Carmen
Brazil,Esperantina,55,Moderate,2,Good,1,Good,3,Good,55,Moderate,-3.9019,-42.2339,Brazil,Esperantina
Brazil,Esperantina,55,Moderate,2,Good,1,Good,3,Good,55,Moderate,-5.3428,-48.5108,Brazil,Esperantina
Belgium,Essen,38,Good,1,Good,28,Good,4,Good,38,Good,51.4508,7.0131,Germany,Essen
Belgium,Essen,38,Good,1,Good,28,Good,4,Good,38,Good,51.4667,4.4667,Belgium,Essen
United Kingdom of Great Britain and Northern Ireland,Falmouth,78,Moderate,0,Good,37,Good,0,Good,78,Moderate,50.15,-5.07,United Kingdom,Falmouth
United Kingdom of Great Britain and Northern Ireland,Falmouth,78,Moderate,0,Good,37,Good,0,Good,78,Moderate,18.49,-77.661,Jamaica,Falmouth
United Kingdom of Great Britain and Northern Ireland,Falmouth,78,Moderate,0,Good,37,Good,0,Good,78,Moderate,41.5913,-70.5912,United States,Falmouth
United Kingdom of Great Britain and Northern Ireland,Falmouth,78,Moderate,0,Good,37,Good,0,Good,78,Moderate,43.7476,-70.2827,United States,Falmouth
Argentina,Formosa,32,Good,0,Good,13,Good,0,Good,32,Good,-26.1833,-58.1833,Argentina,Formosa
Argentina,Formosa,32,Good,0,Good,13,Good,0,Good,32,Good,-15.5369,-47.3339,Brazil,Formosa
Ecuador,Guaranda,59,Moderate,2,Good,1,Good,6,Good,59,Moderate,-1.6,-79.0,Ecuador,Guaranda
Ecuador,Guaranda,59,Moderate,2,Good,1,Good,6,Good,59,Moderate,8.4672,-74.5367,Colombia,Guaranda
United States of America,Gardner,45,Good,1,Good,45,Good,1,Good,25,Good,38.8122,-94.9275,United States,Gardner
United States of America,Gardner,45,Good,1,Good,45,Good,1,Good,25,Good,42.5845,-71.9868,United States,Gardner
Russian Federation,Mikhaylovka,43,Good,1,Good,31,Good,0,Good,43,Good,50.0667,43.25,Russia,Mikhaylovka
Russian Federation,Mikhaylovka,43,Good,1,Good,31,Good,0,Good,43,Good,43.9283,132.0061,Russia,Mihaylovka
United States of America,Millcreek,44,Good,1,Good,21,Good,8,Good,44,Good,40.6892,-111.8292,United States,Millcreek
United States of America,Millcreek,44,Good,1,Good,21,Good,8,Good,44,Good,42.0859,-80.1194,United States,Millcreek Township
United States of America,New Haven,57,Moderate,1,Good,45,Good,4,Good,57,Moderate,41.3113,-72.9246,United States,New Haven
United States of America,New Haven,57,Moderate,1,Good,45,Good,4,Good,57,Moderate,41.0676,-85.0174,United States,New Haven
United Kingdom of Great Britain and Northern Ireland,Newport,47,Good,0,Good,27,Good,3,Good,47,Good,51.5886,-2.9978,United Kingdom,Newport
United Kingdom of Great Britain and Northern Ireland,Newport,47,Good,0,Good,27,Good,3,Good,47,Good,39.0856,-84.4868,United States,Newport
United Kingdom of Great Britain and Northern Ireland,Newport,47,Good,0,Good,27,Good,3,Good,47,Good,52.7691,-2.3787,United Kingdom,Newport
United Kingdom of Great Britain and Northern Ireland,Newport,47,Good,0,Good,27,Good,3,Good,47,Good,41.4801,-71.3203,United States,Newport
United Kingdom of Great Britain and Northern Ireland,Newport,47,Good,0,Good,27,Good,3,Good,47,Good,50.701,-1.2883,United Kingdom,Newport
United Kingdom of Great Britain and Northern Ireland,Newport,47,Good,0,Good,27,Good,3,Good,47,Good,44.6242,-124.0513,United States,Newport
Germany,Erbach,57,Moderate,1,Good,43,Good,2,Good,57,Moderate,49.6569,8.9931,Germany,Erbach (Odenwald)
Germany,Erbach,57,Moderate,1,Good,43,Good,2,Good,57,Moderate,48.3281,9.8878,Germany,Erbach
United Kingdom of Great Britain and Northern Ireland,Gillingham,32,Good,0,Good,32,Good,2,Good,16,Good,51.385,0.55,United Kingdom,Gillingham
United Kingdom of Great Britain and Northern Ireland,Gillingham,32,Good,0,Good,32,Good,2,Good,16,Good,51.0375,-2.2748,United Kingdom,Gillingham
Russian Federation,Krasnogvardeyskoye,48,Good,1,Good,48,Good,0,Good,19,Good,45.85,41.5167,Russia,Krasnogvardeyskoye
Russian Federation,Krasnogvardeyskoye,48,Good,1,Good,48,Good,0,Good,19,Good,45.1278,39.5725,Russia,Krasnogvardeyskoye
United States of America,Sacramento,36,Good,1,Good,26,Good,9,Good,36,Good,38.5677,-121.4685,United States,Sacramento
United States of America,Sacramento,36,Good,1,Good,26,Good,9,Good,36,Good,-19.865,-47.44,Brazil,Sacramento
United States of America,Richland,33,Good,1,Good,33,Good,2,Good,15,Good,46.2824,-119.2939,United States,Richland
United States of America,Richland,33,Good,1,Good,33,Good,2,Good,15,Good,40.449,-75.3362,United States,Richland Township
United States of America,Richland,33,Good,1,Good,33,Good,2,Good,15,Good,40.2842,-78.8449,United States,Richland Township
United States of America,Richland,33,Good,1,Good,33,Good,2,Good,15,Good,40.644,-79.9579,United States,Richland Township
Mexico,Salamanca,137,Unhealthy for Sensitive Groups,3,Good,9,Good,10,Good,137,Unhealthy for Sensitive Groups,20.5703,-101.1972,Mexico,Salamanca
Mexico,Salamanca,137,Unhealthy for Sensitive Groups,3,Good,9,Good,10,Good,137,Unhealthy for Sensitive Groups,40.965,-5.6642,Spain,Salamanca
Mexico,Salamanca,137,Unhealthy for Sensitive Groups,3,Good,9,Good,10,Good,137,Unhealthy for Sensitive Groups,-31.7667,-70.9667,Chile,Salamanca
United States of America,West Point,60,Moderate,1,Good,49,Good,1,Good,60,Moderate,41.122,-112.0995,United States,West Point
United States of America,West Point,60,Moderate,1,Good,49,Good,1,Good,60,Moderate,33.6064,-88.6572,United States,West Point
United States of America,Middletown,48,Good,1,Good,29,Good,8,Good,48,Good,41.4459,-74.4236,United States,City of Middletown
United States of America,Middletown,48,Good,1,Good,29,Good,8,Good,48,Good,39.5033,-84.3659,United States,Middletown
United States of America,Middletown,48,Good,1,Good,29,Good,8,Good,48,Good,40.3892,-74.082,United States,Middletown Township
United States of America,Middletown,48,Good,1,Good,29,Good,8,Good,48,Good,41.5476,-72.6549,United States,Middletown
United States of America,Middletown,48,Good,1,Good,29,Good,8,Good,48,Good,40.179,-74.9059,United States,Middletown Township
United States of America,Middletown,48,Good,1,Good,29,Good,8,Good,48,Good,39.445,-75.7183,United States,Middletown
United States of America,Middletown,48,Good,1,Good,29,Good,8,Good,48,Good,41.5175,-71.2769,United States,Middletown
United States of America,Middletown,48,Good,1,Good,29,Good,8,Good,48,Good,39.9094,-75.4311,United States,Middletown Township
United States of America,Middletown,48,Good,1,Good,29,Good,8,Good,48,Good,38.241,-85.5214,United States,Middletown
United States of America,Middletown,48,Good,1,Good,29,Good,8,Good,48,Good,40.201,-76.7289,United States,Middletown
Spain,Moncada,28,Good,1,Good,28,Good,1,Good,27,Good,15.7331,120.5725,Philippines,Moncada
Spain,Moncada,28,Good,1,Good,28,Good,1,Good,27,Good,41.4867,2.1879,Spain,Montcada i Reixac
Spain,Moncada,28,Good,1,Good,28,Good,1,Good,27,Good,39.5456,-0.3956,Spain,Montcada / Moncada
Germany,Neuenkirchen,32,Good,0,Good,32,Good,1,Good,20,Good,52.2411,7.3689,Germany,Neuenkirchen
Germany,Neuenkirchen,32,Good,0,Good,32,Good,1,Good,20,Good,52.5167,8.0667,Germany,Neuenkirchen-Vörden
Peru,Concepcion,24,Good,0,Good,5,Good,1,Good,24,Good,15.3249,120.6554,Philippines,Concepcion
Peru,Concepcion,24,Good,0,Good,5,Good,1,Good,24,Good,11.2,123.1,Philippines,Concepcion
Peru,Concepcion,24,Good,0,Good,5,Good,1,Good,24,Good,8.4167,123.6,Philippines,Maligubaan
United States of America,Crestwood,73,Moderate,2,Good,15,Good,18,Good,73,Moderate,38.5569,-90.3783,United States,Crestwood
United States of America,Crestwood,73,Moderate,2,Good,15,Good,18,Good,73,Moderate,41.6454,-87.7397,United States,Crestwood
United States of America,Brockton,43,Good,1,Good,36,Good,4,Good,43,Good,42.0821,-71.0242,United States,Brockton
United States of America,Brockton,43,Good,1,Good,36,Good,4,Good,43,Good,44.1667,-81.2167,Canada,Brockton
United States of America,Brooklyn Park,53,Moderate,1,Good,40,Good,4,Good,53,Moderate,45.1112,-93.3505,United States,Brooklyn Park
United States of America,Brooklyn Park,53,Moderate,1,Good,40,Good,4,Good,53,Moderate,39.217,-76.6174,United States,Brooklyn Park
Brazil,Cantagalo,59,Moderate,1,Good,13,Good,3,Good,59,Moderate,-21.9808,-42.3678,Brazil,Cantagalo
Brazil,Cantagalo,59,Moderate,1,Good,13,Good,3,Good,59,Moderate,-25.3739,-52.1258,Brazil,Cantagalo
Spain,Carmona,23,Good,1,Good,19,Good,4,Good,23,Good,14.3167,121.05,Philippines,Carmona
Spain,Carmona,23,Good,1,Good,19,Good,4,Good,23,Good,37.4667,-5.6333,Spain,Carmona
United States of America,Carrollton,60,Moderate,2,Good,39,Good,8,Good,60,Moderate,32.989,-96.8999,United States,Carrollton
United States of America,Carrollton,60,Moderate,2,Good,39,Good,8,Good,60,Moderate,33.5818,-85.0838,United States,Carrollton
United Kingdom of Great Britain and Northern Ireland,Chatham,26,Good,1,Good,23,Good,6,Good,26,Good,42.4229,-82.1324,Canada,Chatham
United Kingdom of Great Britain and Northern Ireland,Chatham,26,Good,1,Good,23,Good,6,Good,26,Good,51.37,0.52,United Kingdom,Chatham
United Kingdom of Great Britain and Northern Ireland,Chatham,26,Good,1,Good,23,Good,6,Good,26,Good,39.6733,-89.6934,United States,Chatham
United Kingdom of Great Britain and Northern Ireland,Chatham,26,Good,1,Good,23,Good,6,Good,26,Good,40.7274,-74.4289,United States,Chatham Township
United States of America,Clarksburg,42,Good,1,Good,40,Good,2,Good,42,Good,39.2246,-77.2659,United States,Montgomery County
United States of America,Clarksburg,42,Good,1,Good,40,Good,2,Good,42,Good,39.2862,-80.3232,United States,Clarksburg
Philippines,Claveria,95,Moderate,1,Good,23,Good,0,Good,95,Moderate,8.61,124.8947,Philippines,Claveria
Philippines,Claveria,95,Moderate,1,Good,23,Good,0,Good,95,Moderate,12.9035,123.2457,Philippines,Claveria
Philippines,Claveria,95,Moderate,1,Good,23,Good,0,Good,95,Moderate,9.5742,125.7328,Philippines,Tayaga
Philippines,Claveria,95,Moderate,1,Good,23,Good,0,Good,95,Moderate,18.6061,121.0822,Philippines,Claveria
United States of America,Fairmount,49,Good,1,Good,49,Good,2,Good,32,Good,43.0414,-76.2485,United States,City of Syracuse
United States of America,Fairmount,49,Good,1,Good,49,Good,2,Good,32,Good,39.7931,-105.1711,United States,Jefferson County
Canada,Beloeil,39,Good,1,Good,26,Good,1,Good,39,Good,45.5667,-73.2,Canada,Beloeil
Canada,Beloeil,39,Good,1,Good,26,Good,1,Good,39,Good,50.5333,3.7167,Belgium,Quevaucamps
United States of America,Bloomfield,52,Moderate,1,Good,40,Good,3,Good,52,Moderate,40.8098,-74.1869,United States,Bloomfield
United States of America,Bloomfield,52,Moderate,1,Good,40,Good,3,Good,52,Moderate,41.8426,-72.7406,United States,Bloomfield
Brazil,Bonito,35,Good,1,Good,9,Good,0,Good,35,Good,-8.47,-35.7289,Brazil,Bonito
Brazil,Bonito,35,Good,1,Good,9,Good,0,Good,35,Good,-21.1333,-56.4833,Brazil,Bonito
Brazil,Bonito,35,Good,1,Good,9,Good,0,Good,35,Good,-11.9658,-41.2669,Brazil,Bonito
Brazil,Bonito,35,Good,1,Good,9,Good,0,Good,35,Good,-1.3628,-47.3069,Brazil,Bonito
Barbados,Bridgetown,73,Moderate,0,Good,24,Good,0,Good,73,Moderate,13.0975,-59.6167,Barbados,Bridgetown
Barbados,Bridgetown,73,Moderate,0,Good,24,Good,0,Good,73,Moderate,39.1552,-84.6359,United States,Bridgetown
United States of America,Bridgewater,45,Good,1,Good,38,Good,2,Good,45,Good,40.5934,-74.6076,United States,Bridgewater Township
United States of America,Bridgewater,45,Good,1,Good,38,Good,2,Good,45,Good,41.9728,-70.9749,United States,Bridgewater
United States of America,Bridgewater,45,Good,1,Good,38,Good,2,Good,45,Good,44.37,-64.52,Canada,Town of Bridgewater
United Kingdom of Great Britain and Northern Ireland,Christchurch,37,Good,1,Good,32,Good,2,Good,37,Good,-43.531,172.6365,New Zealand,Christchurch
United Kingdom of Great Britain and Northern Ireland,Christchurch,37,Good,1,Good,32,Good,2,Good,37,Good,50.73,-1.78,United Kingdom,Christchurch
Pakistan,Akora,182,Unhealthy,5,Good,51,Moderate,8,Good,182,Unhealthy,33.9925,72.145,Pakistan,Isori Kuz
Pakistan,Akora,182,Unhealthy,5,Good,51,Moderate,8,Good,182,Unhealthy,26.4721,78.7989,India,Akora
United States of America,Princeton,53,Moderate,1,Good,28,Good,8,Good,53,Moderate,25.5396,-80.3971,United States,Naranja
United States of America,Princeton,53,Moderate,1,Good,28,Good,8,Good,53,Moderate,40.3562,-74.6693,United States,Princeton
United States of America,Princeton,53,Moderate,1,Good,28,Good,8,Good,53,Moderate,33.1778,-96.5044,United States,Princeton
Spain,Requena,35,Good,1,Good,35,Good,1,Good,26,Good,-5.0569,-73.8515,Peru,Requena
Spain,Requena,35,Good,1,Good,35,Good,1,Good,26,Good,39.4861,-1.1017,Spain,Requena
United States of America,Riverdale,67,Moderate,2,Good,25,Good,12,Good,67,Moderate,33.5639,-84.4103,United States,Riverdale
United States of America,Riverdale,67,Moderate,2,Good,25,Good,12,Good,67,Moderate,41.6441,-87.6366,United States,Riverdale
United States of America,Riverdale,67,Moderate,2,Good,25,Good,12,Good,67,Moderate,41.1732,-112.0023,United States,Riverdale
Mexico,Salinas,25,Good,1,Good,25,Good,1,Good,21,Good,36.6883,-121.6317,United States,Salinas
Mexico,Salinas,25,Good,1,Good,25,Good,1,Good,21,Good,-34.7833,-55.8333,Uruguay,Salinas
Mexico,Salinas,25,Good,1,Good,25,Good,1,Good,21,Good,-16.1185,-42.174,Brazil,Salinas
Mexico,Salinas,25,Good,1,Good,25,Good,1,Good,21,Good,-2.2167,-80.9501,Ecuador,Salinas
Brazil,Patos,31,Good,0,Good,17,Good,0,Good,31,Good,-7.0244,-37.28,Brazil,Patos
Brazil,Patos,31,Good,0,Good,17,Good,0,Good,31,Good,40.6833,19.6167,Albania,Patos
Spain,Pinto,50,Good,1,Good,14,Good,8,Good,50,Good,40.25,-3.7,Spain,Pinto
Spain,Pinto,50,Good,1,Good,14,Good,8,Good,50,Good,-36.7,-71.9,Chile,Pinto
United States of America,Plainview,63,Moderate,1,Good,23,Good,16,Good,63,Moderate,14.5777,121.0337,Philippines,Mandaluyong
United States of America,Plainview,63,Moderate,1,Good,23,Good,16,Good,63,Moderate,40.7832,-73.4732,United States,Plainview
United States of America,Plainview,63,Moderate,1,Good,23,Good,16,Good,63,Moderate,34.1911,-101.7235,United States,Plainview
United States of America,Pleasant Hill,65,Moderate,1,Good,28,Good,15,Good,65,Moderate,37.9539,-122.0759,United States,Pleasant Hill
United States of America,Pleasant Hill,65,Moderate,1,Good,28,Good,15,Good,65,Moderate,41.5867,-93.4953,United States,Pleasant Hill
United States of America,Pleasant Hill,65,Moderate,1,Good,28,Good,15,Good,65,Moderate,38.8059,-94.2652,United States,Pleasant Hill
United States of America,Ada,50,Good,1,Good,26,Good,3,Good,50,Good,45.8,20.1333,Serbia,Ada Municipality
United States of America,Ada,50,Good,1,Good,26,Good,3,Good,50,Good,34.7662,-96.6681,United States,Ada
Brazil,Altamira,39,Good,1,Good,2,Good,0,Good,39,Good,-3.2028,-52.2058,Brazil,Altamira
Brazil,Altamira,39,Good,1,Good,2,Good,0,Good,39,Good,22.3375,-97.8694,Mexico,Miramar
Brazil,Altamira,39,Good,1,Good,2,Good,0,Good,39,Good,19.6667,-70.8333,Dominican Republic,Altamira
United States of America,Portland,48,Good,1,Good,48,Good,2,Good,36,Good,45.5371,-122.65,United States,Portland
United States of America,Portland,48,Good,1,Good,48,Good,2,Good,36,Good,43.6773,-70.2715,United States,Portland
United States of America,Portland,48,Good,1,Good,48,Good,2,Good,36,Good,27.8942,-97.3278,United States,Portland
United States of America,Portland,48,Good,1,Good,48,Good,2,Good,36,Good,36.5921,-86.5239,United States,Portland
United States of America,Portland,48,Good,1,Good,48,Good,2,Good,36,Good,-38.3333,141.6,Australia,Portland
United States of America,Portland,48,Good,1,Good,48,Good,2,Good,36,Good,41.5988,-72.589,United States,Portland
United States of America,Selma,61,Moderate,2,Good,8,Good,17,Good,61,Moderate,36.5715,-119.6143,United States,Selma
United States of America,Selma,61,Moderate,2,Good,8,Good,17,Good,61,Moderate,32.4166,-87.0336,United States,Selma
United States of America,Selma,61,Moderate,2,Good,8,Good,17,Good,61,Moderate,29.5866,-98.3132,United States,Selma
United States of America,Somerset,44,Good,1,Good,33,Good,5,Good,44,Good,40.5083,-74.501,United States,Franklin Township
United States of America,Somerset,44,Good,1,Good,33,Good,5,Good,44,Good,41.7404,-71.1612,United States,Swansea
United States of America,Somerset,44,Good,1,Good,33,Good,5,Good,44,Good,37.0834,-84.6109,United States,Somerset
United States of America,Spring Valley,59,Moderate,1,Good,26,Good,10,Good,59,Moderate,36.0952,-115.2636,United States,Spring Valley
United States of America,Spring Valley,59,Moderate,1,Good,26,Good,10,Good,59,Moderate,41.1151,-74.0486,United States,Village of Spring Valley
United States of America,Spring Valley,59,Moderate,1,Good,26,Good,10,Good,59,Moderate,32.7317,-116.9766,United States,Spring Valley
United States of America,Scituate,45,Good,1,Good,35,Good,5,Good,45,Good,42.1992,-70.759,United States,Scituate
United States of America,Scituate,45,Good,1,Good,35,Good,5,Good,45,Good,41.7926,-71.6203,United States,Scituate
Brazil,Areia Branca,21,Good,0,Good,21,Good,0,Good,19,Good,-4.9558,-37.1369,Brazil,Areia Branca
Brazil,Areia Branca,21,Good,0,Good,21,Good,0,Good,19,Good,-10.7578,-37.315,Brazil,Areia Branca
Philippines,Astorga,39,Good,1,Good,15,Good,0,Good,39,Good,-23.2328,-51.6658,Brazil,Astorga
Philippines,Astorga,39,Good,1,Good,15,Good,0,Good,39,Good,42.4589,-6.0633,Spain,Astorga
Philippines,Carmen,80,Moderate,1,Good,26,Good,0,Good,80,Moderate,18.4167,-91.6333,Mexico,Carmen
Philippines,Carmen,80,Moderate,1,Good,26,Good,0,Good,80,Moderate,7.2,124.7833,Philippines,Carmen
Philippines,Carmen,80,Moderate,1,Good,26,Good,0,Good,80,Moderate,7.3606,125.7064,Philippines,Carmen
Philippines,Carmen,80,Moderate,1,Good,26,Good,0,Good,80,Moderate,9.8167,124.2,Philippines,Guadalupe
Philippines,Carmen,80,Moderate,1,Good,26,Good,0,Good,80,Moderate,8.9999,125.2648,Philippines,Tagcatong
Philippines,Carmen,80,Moderate,1,Good,26,Good,0,Good,80,Moderate,9.2289,126.0167,Philippines,Carmen
,Ternate,22,Good,1,Good,16,Good,0,Good,22,Good,0.78,127.3819,Indonesia,Ternate
,Ternate,22,Good,1,Good,16,Good,0,Good,22,Good,14.2833,120.7167,Philippines,Ternate
Côte d'Ivoire,Touba,29,Good,1,Good,14,Good,0,Good,29,Good,14.8667,-15.8833,Senegal,Touba
Côte d'Ivoire,Touba,29,Good,1,Good,14,Good,0,Good,29,Good,8.2833,-7.6833,Côte d'Ivoire,Touba
Greece,Tripoli,44,Good,1,Good,44,Good,0,Good,30,Good,32.8872,13.1914,Libya,Tripoli
Greece,Tripoli,44,Good,1,Good,44,Good,0,Good,30,Good,34.4367,35.8344,Lebanon,Tripoli
Peru,Trujillo,47,Good,1,Good,16,Good,2,Good,47,Good,-8.112,-79.0288,Peru,Trujillo
Peru,Trujillo,47,Good,1,Good,16,Good,2,Good,47,Good,15.9186,-85.9533,Honduras,Trujillo
Peru,Trujillo,47,Good,1,Good,16,Good,2,Good,47,Good,9.417,-70.5,Venezuela,Pampanito
Peru,Trujillo,47,Good,1,Good,16,Good,2,Good,47,Good,4.25,-76.3333,Colombia,Trujillo
Peru,Trujillo,47,Good,1,Good,16,Good,2,Good,47,Good,39.4653,-5.8789,Spain,Trujillo
France,Vernouillet,60,Moderate,1,Good,20,Good,6,Good,60,Moderate,48.7208,1.3606,France,Vernouillet
France,Vernouillet,60,Moderate,1,Good,20,Good,6,Good,60,Moderate,48.9722,1.9833,France,Vernouillet
Argentina,Villeta,90,Moderate,2,Good,5,Good,3,Good,90,Moderate,5.0083,-74.4738,Colombia,Villeta
Argentina,Villeta,90,Moderate,2,Good,5,Good,3,Good,90,Moderate,-25.51,-57.56,Paraguay,Villeta
United States of America,Wells,29,Good,1,Good,29,Good,5,Good,29,Good,51.2094,-2.645,United Kingdom,Wells
United States of America,Wells,29,Good,1,Good,29,Good,5,Good,29,Good,43.3267,-70.6336,United States,Wells
United States of America,Woodbury,56,Moderate,2,Good,19,Good,16,Good,56,Moderate,44.9057,-92.923,United States,Woodbury
United States of America,Woodbury,56,Moderate,2,Good,19,Good,16,Good,56,Moderate,41.3284,-74.1004,United States,Village of Woodbury
United States of America,Woodbury,56,Moderate,2,Good,19,Good,16,Good,56,Moderate,39.8379,-75.1524,United States,Woodbury
United States of America,Woodbury,56,Moderate,2,Good,19,Good,16,Good,56,Moderate,40.8176,-73.4703,United States,Woodbury
United States of America,Woodbury,56,Moderate,2,Good,19,Good,16,Good,56,Moderate,41.5615,-73.207,United States,Woodbury
United States of America,Yeadon,59,Moderate,2,Good,17,Good,18,Good,59,Moderate,39.9325,-75.2527,United States,Yeadon
United States of America,Yeadon,59,Moderate,2,Good,17,Good,18,Good,59,Moderate,53.869,-1.688,United Kingdom,Leeds
United States of America,Forest Park,81,Moderate,2,Good,15,Good,19,Good,81,Moderate,41.8683,-87.8157,United States,Forest Park
United States of America,Forest Park,81,Moderate,2,Good,15,Good,19,Good,81,Moderate,39.2861,-84.5258,United States,Forest Park
United States of America,Forest Park,81,Moderate,2,Good,15,Good,19,Good,81,Moderate,33.6209,-84.359,United States,Forest Park
United States of America,Oregon,42,Good,1,Good,42,Good,6,Good,33,Good,41.6524,-83.4321,United States,Oregon
United States of America,Oregon,42,Good,1,Good,42,Good,6,Good,33,Good,42.9253,-89.3892,United States,Oregon
United States of America,Oswego,54,Moderate,2,Good,28,Good,11,Good,54,Moderate,41.6834,-88.3372,United States,Oswego
United States of America,Oswego,54,Moderate,2,Good,28,Good,11,Good,54,Moderate,43.4516,-76.5005,United States,City of Oswego
United States of America,Pineville,48,Good,1,Good,15,Good,4,Good,48,Good,31.3414,-92.4096,United States,Pineville
United States of America,Pineville,48,Good,1,Good,15,Good,4,Good,48,Good,35.0864,-80.8915,United States,Pineville
Portugal,Porto,28,Good,0,Good,28,Good,2,Good,21,Good,41.1621,-8.622,Portugal,Porto
Portugal,Porto,28,Good,0,Good,28,Good,2,Good,21,Good,-3.8928,-42.71,Brazil,Porto
United States of America,Russellville,79,Moderate,1,Good,23,Good,4,Good,79,Moderate,35.2762,-93.1383,United States,Russellville
United States of America,Russellville,79,Moderate,1,Good,23,Good,4,Good,79,Moderate,34.5055,-87.7283,United States,Russellville
United States of America,Rye,70,Moderate,2,Good,12,Good,24,Good,70,Moderate,41.0075,-73.6872,United States,Village of Rye Brook
United States of America,Rye,70,Moderate,2,Good,12,Good,24,Good,70,Moderate,50.95,0.73,United Kingdom,Rother
United Kingdom of Great Britain and Northern Ireland,Sale,34,Good,1,Good,30,Good,3,Good,34,Good,34.0333,-6.8,Morocco,Salé
United Kingdom of Great Britain and Northern Ireland,Sale,34,Good,1,Good,30,Good,3,Good,34,Good,53.424,-2.322,United Kingdom,Trafford
United Kingdom of Great Britain and Northern Ireland,Sale,34,Good,1,Good,30,Good,3,Good,34,Good,-38.1,147.0667,Australia,Sale
Chile,San Bernardo,240,Very Unhealthy,15,Good,0,Good,24,Good,240,Very Unhealthy,-33.5833,-70.7,Chile,Provincia de Maipo
Chile,San Bernardo,240,Very Unhealthy,15,Good,0,Good,24,Good,240,Very Unhealthy,1.5108,-77.0467,Colombia,San Bernardo
Chile,San Bernardo,240,Very Unhealthy,15,Good,0,Good,24,Good,240,Very Unhealthy,-27.2667,-60.7,Argentina,Municipio de San Bernardo
,San Jose,45,Good,1,Good,17,Good,0,Good,45,Good,37.3012,-121.848,United States,San Jose
,San Jose,45,Good,1,Good,17,Good,0,Good,45,Good,12.3528,121.0676,Philippines,San Jose
,San Jose,45,Good,1,Good,17,Good,0,Good,45,Good,15.7919,120.99,Philippines,San Jose
,San Jose,45,Good,1,Good,17,Good,0,Good,45,Good,10.7433,121.9411,Philippines,San Jose de Buenavista
,San Jose,45,Good,1,Good,17,Good,0,Good,45,Good,10.18,125.5683,Philippines,Libjo
,San Jose,45,Good,1,Good,17,Good,0,Good,45,Good,13.8772,121.105,Philippines,San Jose
,San Jose,45,Good,1,Good,17,Good,0,Good,45,Good,13.6981,123.5186,Philippines,San Jose
,San Jose,45,Good,1,Good,17,Good,0,Good,45,Good,10.0083,125.5889,Philippines,San Jose
,San Jose,45,Good,1,Good,17,Good,0,Good,45,Good,9.4167,123.2333,Philippines,San Jose
,San Jose,45,Good,1,Good,17,Good,0,Good,45,Good,12.531,124.487,Philippines,San Jose
Costa Rica,San Josecito,83,Moderate,2,Good,2,Good,14,Good,83,Moderate,10.0126,-84.1119,Costa Rica,San Josecito
Costa Rica,San Josecito,83,Moderate,2,Good,2,Good,14,Good,83,Moderate,9.8885,-84.1055,Costa Rica,San Josecito
United States of America,San Pablo,55,Moderate,1,Good,15,Good,17,Good,55,Moderate,14.07,121.325,Philippines,San Pablo
United States of America,San Pablo,55,Moderate,1,Good,15,Good,17,Good,55,Moderate,37.9629,-122.3426,United States,San Pablo
United States of America,San Pablo,55,Moderate,1,Good,15,Good,17,Good,55,Moderate,9.9918,-84.0937,Costa Rica,San Pablo
United States of America,San Pablo,55,Moderate,1,Good,15,Good,17,Good,55,Moderate,7.4825,-73.925,Colombia,San Pablo
United States of America,San Pablo,55,Moderate,1,Good,15,Good,17,Good,55,Moderate,7.6578,123.4597,Philippines,San Pablo
United States of America,San Pablo,55,Moderate,1,Good,15,Good,17,Good,55,Moderate,17.4478,121.795,Philippines,San Jose
United States of America,San Pablo,55,Moderate,1,Good,15,Good,17,Good,55,Moderate,1.6725,-77.0139,Colombia,San Pablo
United States of America,San Pablo,55,Moderate,1,Good,15,Good,17,Good,55,Moderate,-40.4,-73.0167,Chile,San Pablo
United States of America,Santa Clara,66,Moderate,2,Good,9,Good,20,Good,66,Moderate,22.4069,-79.9649,Cuba,Santa Clara
United States of America,Santa Clara,66,Moderate,2,Good,9,Good,20,Good,66,Moderate,37.3646,-121.968,United States,Santa Clara
United States of America,Santa Clara,66,Moderate,2,Good,9,Good,20,Good,66,Moderate,44.1154,-123.1344,United States,Eugene
Ecuador,Santo Domingo,70,Moderate,2,Good,3,Good,7,Good,70,Moderate,18.4764,-69.8933,Dominican Republic,Santo Domingo
Ecuador,Santo Domingo,70,Moderate,2,Good,3,Good,7,Good,70,Moderate,15.59,120.8786,Philippines,Santo Domingo
Ecuador,Santo Domingo,70,Moderate,2,Good,3,Good,7,Good,70,Moderate,22.5833,-80.2383,Cuba,Santo Domingo
Ecuador,Santo Domingo,70,Moderate,2,Good,3,Good,7,Good,70,Moderate,9.988,-84.0686,Costa Rica,San Vicente
Ecuador,Santo Domingo,70,Moderate,2,Good,3,Good,7,Good,70,Moderate,13.235,123.7769,Philippines,Santo Domingo
Ecuador,Santo Domingo,70,Moderate,2,Good,3,Good,7,Good,70,Moderate,17.6414,120.4108,Philippines,Santo Domingo
Ecuador,Santo Domingo,70,Moderate,2,Good,3,Good,7,Good,70,Moderate,12.2631,-85.0822,Nicaragua,Santo Domingo
Ecuador,Santo Domingo,70,Moderate,2,Good,3,Good,7,Good,70,Moderate,6.4708,-75.1658,Colombia,Santo Domingo
Colombia,Santo Tomas,85,Moderate,2,Good,18,Good,7,Good,85,Moderate,14.0833,121.1833,Philippines,Santo Tomas
Colombia,Santo Tomas,85,Moderate,2,Good,18,Good,7,Good,85,Moderate,7.5333,125.6167,Philippines,Santo Tomas
Colombia,Santo Tomas,85,Moderate,2,Good,18,Good,7,Good,85,Moderate,15.0,120.75,Philippines,San Simon
Colombia,Santo Tomas,85,Moderate,2,Good,18,Good,7,Good,85,Moderate,16.2833,120.3833,Philippines,Santo Tomas
Colombia,Santo Tomas,85,Moderate,2,Good,18,Good,7,Good,85,Moderate,17.4,121.7667,Philippines,Santo Tomas
United States of America,Riverton,54,Moderate,1,Good,13,Good,12,Good,54,Moderate,40.5176,-111.9636,United States,Riverton
United States of America,Riverton,54,Moderate,1,Good,13,Good,12,Good,54,Moderate,43.0421,-108.4144,United States,Fremont County
United States of America,Norwood,34,Good,1,Good,24,Good,8,Good,34,Good,39.1605,-84.4535,United States,Norwood
United States of America,Norwood,34,Good,1,Good,24,Good,8,Good,34,Good,42.1861,-71.1948,United States,Norwood
United States of America,Springdale,86,Moderate,1,Good,24,Good,4,Good,86,Moderate,36.1901,-94.1574,United States,Springdale
United States of America,Springdale,86,Moderate,1,Good,24,Good,4,Good,86,Moderate,39.8769,-74.9724,United States,Cherry Hill Township
United States of America,Springdale,86,Moderate,1,Good,24,Good,4,Good,86,Moderate,39.2909,-84.476,United States,Springdale
United Kingdom of Great Britain and Northern Ireland,Stafford,41,Good,1,Good,30,Good,3,Good,41,Good,52.807,-2.117,United Kingdom,Stafford
United Kingdom of Great Britain and Northern Ireland,Stafford,41,Good,1,Good,30,Good,3,Good,41,Good,39.7049,-74.2643,United States,Stafford Township
United Kingdom of Great Britain and Northern Ireland,Stafford,41,Good,1,Good,30,Good,3,Good,41,Good,29.6271,-95.5654,United States,Stafford
United Kingdom of Great Britain and Northern Ireland,Stafford,41,Good,1,Good,30,Good,3,Good,41,Good,41.9876,-72.3122,United States,Stafford
United Kingdom of Great Britain and Northern Ireland,Stroud,51,Moderate,1,Good,21,Good,5,Good,51,Moderate,41.0001,-75.2173,United States,Stroud Township
United Kingdom of Great Britain and Northern Ireland,Stroud,51,Moderate,1,Good,21,Good,5,Good,51,Moderate,51.744,-2.215,United Kingdom,Stroud
India,Kota,160,Unhealthy,1,Good,42,Good,1,Good,160,Unhealthy,25.18,75.83,India,Kota
India,Kota,160,Unhealthy,1,Good,42,Good,1,Good,160,Unhealthy,14.0333,80.05,India,Kota
Thailand,Kathu,40,Good,0,Good,23,Good,0,Good,40,Good,7.9112,98.3475,Thailand,Kathu
Thailand,Kathu,40,Good,0,Good,23,Good,0,Good,40,Good,-27.7,23.05,South Africa,Gamagara Local Municipality
United Kingdom of Great Britain and Northern Ireland,Irvine,62,Moderate,0,Good,34,Good,0,Good,62,Moderate,33.6772,-117.7738,United States,Irvine
United Kingdom of Great Britain and Northern Ireland,Irvine,62,Moderate,0,Good,34,Good,0,Good,62,Moderate,55.6201,-4.6614,United Kingdom,Irvine
United States of America,Shelbyville,45,Good,1,Good,30,Good,8,Good,45,Good,35.4987,-86.4517,United States,Shelbyville
United States of America,Shelbyville,45,Good,1,Good,30,Good,8,Good,45,Good,39.5352,-85.7793,United States,Shelbyville
United States of America,Shelbyville,45,Good,1,Good,30,Good,8,Good,45,Good,38.2067,-85.2292,United States,Shelbyville
India,Sirsa,260,Very Unhealthy,1,Good,47,Good,0,Good,239,Very Unhealthy,29.5333,75.0167,India,Sirsa
India,Sirsa,260,Very Unhealthy,1,Good,47,Good,0,Good,239,Very Unhealthy,26.2667,84.7403,India,Baikunthpur
Republic of Moldova,Slobozia,52,Moderate,1,Good,39,Good,0,Good,52,Moderate,44.5639,27.3661,Romania,Slobozia
Republic of Moldova,Slobozia,52,Moderate,1,Good,39,Good,0,Good,52,Moderate,46.7333,29.7,Moldova,Slobozia
United Kingdom of Great Britain and Northern Ireland,Southport,67,Moderate,0,Good,33,Good,0,Good,67,Moderate,53.6475,-3.0053,United Kingdom,Southport
United Kingdom of Great Britain and Northern Ireland,Southport,67,Moderate,0,Good,33,Good,0,Good,67,Moderate,-27.9667,153.4,Australia,Gold Coast City
United Kingdom of Great Britain and Northern Ireland,Southport,67,Moderate,0,Good,33,Good,0,Good,67,Moderate,42.04,-76.8775,United States,Town of Southport
United States of America,Stoughton,68,Moderate,3,Good,2,Good,12,Good,68,Moderate,42.1192,-71.1019,United States,Stoughton
United States of America,Stoughton,68,Moderate,3,Good,2,Good,12,Good,68,Moderate,42.9237,-89.2225,United States,Stoughton
Costa Rica,San Francisco,58,Moderate,1,Good,9,Good,7,Good,58,Moderate,37.7558,-122.4449,United States,San Francisco
Costa Rica,San Francisco,58,Moderate,1,Good,9,Good,7,Good,58,Moderate,9.9083,-84.0582,Costa Rica,San Francisco de Dos Ríos
Costa Rica,San Francisco,58,Moderate,1,Good,9,Good,7,Good,58,Moderate,13.7,-88.1,El Salvador,San Francisco Gotera
Costa Rica,San Francisco,58,Moderate,1,Good,9,Good,7,Good,58,Moderate,30.9,-112.6,Mexico,Caborca
Costa Rica,San Francisco,58,Moderate,1,Good,9,Good,7,Good,58,Moderate,8.505,125.9771,Philippines,San Francisco
Costa Rica,San Francisco,58,Moderate,1,Good,9,Good,7,Good,58,Moderate,-31.4356,-62.0714,Argentina,San Francisco
Costa Rica,San Francisco,58,Moderate,1,Good,9,Good,7,Good,58,Moderate,10.65,124.35,Philippines,San Francisco
Costa Rica,San Francisco,58,Moderate,1,Good,9,Good,7,Good,58,Moderate,16.8017,-89.9342,Guatemala,San Francisco
Costa Rica,San Francisco,58,Moderate,1,Good,9,Good,7,Good,58,Moderate,15.6667,-87.0333,Honduras,San Francisco
Costa Rica,San Francisco,58,Moderate,1,Good,9,Good,7,Good,58,Moderate,14.1167,-88.3667,Honduras,San Francisco
United States of America,Sanford,42,Good,1,Good,42,Good,2,Good,30,Good,28.7891,-81.2757,United States,Sanford
United States of America,Sanford,42,Good,1,Good,42,Good,2,Good,30,Good,35.4875,-79.177,United States,Sanford
United States of America,Sanford,42,Good,1,Good,42,Good,2,Good,30,Good,43.4244,-70.7573,United States,Sanford
Germany,Senden,34,Good,1,Good,34,Good,2,Good,25,Good,48.3167,10.0667,Germany,Senden
Germany,Senden,34,Good,1,Good,34,Good,2,Good,25,Good,51.8572,7.4828,Germany,Senden
Brazil,Tamboril,34,Good,1,Good,5,Good,2,Good,34,Good,19.48,-70.6,Dominican Republic,Tamboril
Brazil,Tamboril,34,Good,1,Good,5,Good,2,Good,34,Good,-4.8319,-40.3208,Brazil,Tamboril
United States of America,Sherwood,61,Moderate,1,Good,29,Good,3,Good,61,Moderate,34.8507,-92.2029,United States,Sherwood
United States of America,Sherwood,61,Moderate,1,Good,29,Good,3,Good,61,Moderate,45.3594,-122.8427,United States,Sherwood
United States of America,Silver Spring,42,Good,1,Good,39,Good,6,Good,42,Good,39.0028,-77.0207,United States,Montgomery County
United States of America,Silver Spring,42,Good,1,Good,39,Good,6,Good,42,Good,40.2503,-77.0567,United States,Silver Spring Township
Portugal,Silves,36,Good,1,Good,36,Good,3,Good,19,Good,37.1869,-8.4389,Portugal,Silves
Portugal,Silves,36,Good,1,Good,36,Good,3,Good,19,Good,-2.8389,-58.2092,Brazil,Silves
,Sinop,47,Good,1,Good,33,Good,0,Good,47,Good,-11.8481,-55.6492,Brazil,
,Sinop,47,Good,1,Good,33,Good,0,Good,47,Good,42.0267,35.1511,Turkey,Sinop
United States of America,Harrisburg,67,Moderate,2,Good,20,Good,17,Good,67,Moderate,40.2752,-76.8843,United States,Harrisburg
United States of America,Harrisburg,67,Moderate,2,Good,20,Good,17,Good,67,Moderate,35.3125,-80.6485,United States,Harrisburg
United States of America,Exeter,55,Moderate,1,Good,28,Good,5,Good,55,Moderate,50.7256,-3.5269,United Kingdom,Exeter
United States of America,Exeter,55,Moderate,1,Good,28,Good,5,Good,55,Moderate,40.3139,-75.834,United States,Exeter Township
United States of America,Exeter,55,Moderate,1,Good,28,Good,5,Good,55,Moderate,42.9901,-70.9646,United States,Exeter
United States of America,Exeter,55,Moderate,1,Good,28,Good,5,Good,55,Moderate,36.2941,-119.1459,United States,Exeter
United States of America,Fairview,75,Moderate,2,Good,18,Good,20,Good,75,Moderate,40.8182,-74.0022,United States,Fairview
United States of America,Fairview,75,Moderate,2,Good,18,Good,20,Good,75,Moderate,40.1735,-76.8655,United States,Fairview Township
United States of America,Fairview,75,Moderate,2,Good,18,Good,20,Good,75,Moderate,37.6758,-122.0473,United States,Castro Valley
United States of America,Fairview,75,Moderate,2,Good,18,Good,20,Good,75,Moderate,42.0261,-80.2361,United States,Fairview Township
United States of America,Fairview,75,Moderate,2,Good,18,Good,20,Good,75,Moderate,45.5469,-122.439,United States,Fairview
United States of America,Fairview,75,Moderate,2,Good,18,Good,20,Good,75,Moderate,33.1399,-96.6117,United States,Fairview
United States of America,Fairview,75,Moderate,2,Good,18,Good,20,Good,75,Moderate,35.9815,-87.1291,United States,Fairview
United States of America,Forestville,46,Good,1,Good,30,Good,9,Good,46,Good,38.8518,-76.8708,United States,District Heights
United States of America,Forestville,46,Good,1,Good,30,Good,9,Good,46,Good,39.0711,-84.3389,United States,Forestville
United States of America,Chillicothe,42,Good,1,Good,35,Good,6,Good,42,Good,39.3393,-82.9939,United States,Chillicothe
United States of America,Chillicothe,42,Good,1,Good,35,Good,6,Good,42,Good,39.7953,-93.5499,United States,Chillicothe
United States of America,Bloomingdale,55,Moderate,1,Good,12,Good,18,Good,55,Moderate,27.8784,-82.2624,United States,Hillsborough County
United States of America,Bloomingdale,55,Moderate,1,Good,12,Good,18,Good,55,Moderate,41.9497,-88.0895,United States,Bloomingdale
United States of America,Bloomingdale,55,Moderate,1,Good,12,Good,18,Good,55,Moderate,36.5793,-82.5096,United States,Kingsport
France,Brest,28,Good,0,Good,28,Good,1,Good,25,Good,52.1347,23.6569,Belarus,Brest
France,Brest,28,Good,0,Good,28,Good,1,Good,25,Good,48.39,-4.49,France,Brest
United States of America,Butler,50,Good,1,Good,31,Good,8,Good,50,Good,40.8616,-79.8962,United States,Butler
United States of America,Butler,50,Good,1,Good,31,Good,8,Good,50,Good,41.0358,-75.9798,United States,Butler Township
Colombia,Caldas,125,Unhealthy for Sensitive Groups,4,Good,0,Good,8,Good,125,Unhealthy for Sensitive Groups,6.09,-75.638,Colombia,Caldas
Colombia,Caldas,125,Unhealthy for Sensitive Groups,4,Good,0,Good,8,Good,125,Unhealthy for Sensitive Groups,-21.9239,-46.3858,Brazil,Caldas
Brazil,Capela,35,Good,0,Good,13,Good,2,Good,35,Good,-10.5028,-37.0528,Brazil,Capela
Brazil,Capela,35,Good,0,Good,13,Good,2,Good,35,Good,-9.4075,-36.0736,Brazil,Capela
Philippines,Bambang,53,Moderate,1,Good,26,Good,0,Good,53,Moderate,14.5228,121.0689,Philippines,Taguig
Philippines,Bambang,53,Moderate,1,Good,26,Good,0,Good,53,Moderate,16.3872,121.1075,Philippines,Magsaysay Hill
United Kingdom of Great Britain and Northern Ireland,Bath,47,Good,0,Good,32,Good,1,Good,47,Good,51.38,-2.36,United Kingdom,Bath
United Kingdom of Great Britain and Northern Ireland,Bath,47,Good,0,Good,32,Good,1,Good,47,Good,42.3219,-77.3083,United States,Village of Bath
United Kingdom of Great Britain and Northern Ireland,Bath,47,Good,0,Good,32,Good,1,Good,47,Good,43.9346,-69.8346,United States,Bath
Canada,Bathurst,35,Good,1,Good,29,Good,0,Good,35,Good,-33.42,149.5778,Australia,Bathurst
Canada,Bathurst,35,Good,1,Good,29,Good,0,Good,35,Good,47.62,-65.65,Canada,Bathurst
Portugal,Belas,45,Good,0,Good,30,Good,2,Good,45,Good,-8.9983,13.265,Angola,New Kilamba Town
Portugal,Belas,45,Good,0,Good,30,Good,2,Good,45,Good,38.7754,-9.2716,Portugal,Sintra
United States of America,Concord,43,Good,1,Good,43,Good,1,Good,24,Good,37.9722,-122.0016,United States,Concord
United States of America,Concord,43,Good,1,Good,43,Good,1,Good,24,Good,35.3933,-80.6369,United States,Concord
United States of America,Concord,43,Good,1,Good,43,Good,1,Good,24,Good,43.2305,-71.5595,United States,Concord
United States of America,Concord,43,Good,1,Good,43,Good,1,Good,24,Good,38.5117,-90.3574,United States,Saint Louis County
United States of America,Concord,43,Good,1,Good,43,Good,1,Good,24,Good,42.462,-71.3639,United States,Concord
United States of America,Concord,43,Good,1,Good,43,Good,1,Good,24,Good,39.8741,-75.5135,United States,Concord Township
Argentina,Concordia,19,Good,0,Good,17,Good,0,Good,19,Good,-31.4,-58.0333,Argentina,Concordia
Argentina,Concordia,19,Good,0,Good,17,Good,0,Good,19,Good,6.049,-75.909,Colombia,Concordia
Argentina,Concordia,19,Good,0,Good,17,Good,0,Good,19,Good,10.2667,-74.8333,Colombia,Concordia
Canada,Cornwall,36,Good,1,Good,36,Good,0,Good,25,Good,45.0275,-74.74,Canada,Cornwall
Canada,Cornwall,36,Good,1,Good,36,Good,0,Good,25,Good,41.4195,-74.054,United States,Town of Cornwall
United States of America,Glendale,52,Moderate,1,Good,26,Good,1,Good,52,Moderate,33.5791,-112.2311,United States,Peoria
United States of America,Glendale,52,Moderate,1,Good,26,Good,1,Good,52,Moderate,34.1819,-118.2468,United States,Glendale
United States of America,Glendale,52,Moderate,1,Good,26,Good,1,Good,52,Moderate,43.1287,-87.9277,United States,Glendale
United States of America,Greenville,58,Moderate,1,Good,49,Good,1,Good,58,Moderate,34.8354,-82.3646,United States,Greenville
United States of America,Greenville,58,Moderate,1,Good,49,Good,1,Good,58,Moderate,35.5943,-77.376,United States,Greenville
United States of America,Greenville,58,Moderate,1,Good,49,Good,1,Good,58,Moderate,5.0167,-9.0333,Liberia,Greenville
United States of America,Greenville,58,Moderate,1,Good,49,Good,1,Good,58,Moderate,33.385,-91.0514,United States,Greenville
United States of America,Greenville,58,Moderate,1,Good,49,Good,1,Good,58,Moderate,33.1116,-96.1099,United States,Greenville
United States of America,Greenville,58,Moderate,1,Good,49,Good,1,Good,58,Moderate,40.1043,-84.6209,United States,Greenville
United States of America,Greenville,58,Moderate,1,Good,49,Good,1,Good,58,Moderate,40.9986,-73.8189,United States,Village of Scarsdale
United States of America,Greenville,58,Moderate,1,Good,49,Good,1,Good,58,Moderate,43.1797,-85.2534,United States,Greenville
United States of America,Greenville,58,Moderate,1,Good,49,Good,1,Good,58,Moderate,41.882,-71.5549,United States,Smithfield
Japan,Hidaka,88,Moderate,2,Good,11,Good,22,Good,88,Moderate,35.9078,139.3391,Japan,Hidaka
Japan,Hidaka,88,Moderate,2,Good,11,Good,22,Good,88,Moderate,42.4803,142.0743,Japan,Hidaka
United States of America,Hillsborough,50,Good,1,Good,34,Good,2,Good,50,Good,40.4985,-74.674,United States,Hillsborough Township
United States of America,Hillsborough,50,Good,1,Good,34,Good,2,Good,50,Good,40.5069,-74.6523,United States,Hillsborough Township
United States of America,Hillsborough,50,Good,1,Good,34,Good,2,Good,50,Good,37.5572,-122.3586,United States,Hillsborough
United States of America,Hillsborough,50,Good,1,Good,34,Good,2,Good,50,Good,36.0679,-79.0991,United States,Hillsborough
Costa Rica,San Antonio,46,Good,1,Good,26,Good,0,Good,46,Good,29.4632,-98.5238,United States,San Antonio
Costa Rica,San Antonio,46,Good,1,Good,26,Good,0,Good,46,Good,14.4656,121.0311,Philippines,Parañaque
Costa Rica,San Antonio,46,Good,1,Good,26,Good,0,Good,46,Good,-25.3797,-57.6097,Paraguay,Lambaré
Costa Rica,San Antonio,46,Good,1,Good,26,Good,0,Good,46,Good,9.9781,-84.1879,Costa Rica,San Antonio
Costa Rica,San Antonio,46,Good,1,Good,26,Good,0,Good,46,Good,-33.5933,-71.6217,Chile,San Antonio
Costa Rica,San Antonio,46,Good,1,Good,26,Good,0,Good,46,Good,15.3078,120.8533,Philippines,San Antonio
Costa Rica,San Antonio,46,Good,1,Good,26,Good,0,Good,46,Good,14.9486,120.0864,Philippines,San Antonio
Costa Rica,San Antonio,46,Good,1,Good,26,Good,0,Good,46,Good,13.9,121.3,Philippines,Poblacion
Costa Rica,San Antonio,46,Good,1,Good,26,Good,0,Good,46,Good,3.9167,-75.5,Colombia,San Antonio
Costa Rica,San Antonio,46,Good,1,Good,26,Good,0,Good,46,Good,10.0,-74.6667,Colombia,Tenerife
Costa Rica,San Antonio,46,Good,1,Good,26,Good,0,Good,46,Good,12.414,124.279,Philippines,San Antonio
Philippines,San Jacinto,89,Moderate,1,Good,27,Good,6,Good,89,Moderate,33.797,-116.9916,United States,San Jacinto
Philippines,San Jacinto,89,Moderate,1,Good,27,Good,6,Good,89,Moderate,16.0725,120.4411,Philippines,Capaoay
Philippines,San Jacinto,89,Moderate,1,Good,27,Good,6,Good,89,Moderate,12.5683,123.7336,Philippines,San Jacinto
Philippines,San Jacinto,89,Moderate,1,Good,27,Good,6,Good,89,Moderate,9.8311,-75.1219,Colombia,San Jacinto
Philippines,San Jacinto,89,Moderate,1,Good,27,Good,6,Good,89,Moderate,14.6667,-89.5,Guatemala,El Carrizal
Philippines,San Miguel,153,Unhealthy,3,Good,19,Good,9,Good,153,Unhealthy,13.4814,-88.1775,El Salvador,San Miguel
Philippines,San Miguel,153,Unhealthy,3,Good,19,Good,9,Good,153,Unhealthy,15.1458,120.9783,Philippines,San Miguel
Philippines,San Miguel,153,Unhealthy,3,Good,19,Good,9,Good,153,Unhealthy,-34.5333,-58.7167,Argentina,San Miguel
Philippines,San Miguel,153,Unhealthy,3,Good,19,Good,9,Good,153,Unhealthy,14.6,121.0,Philippines,Manila
Philippines,San Miguel,153,Unhealthy,3,Good,19,Good,9,Good,153,Unhealthy,8.9322,126.0403,Philippines,San Miguel
Philippines,San Miguel,153,Unhealthy,3,Good,19,Good,9,Good,153,Unhealthy,10.7833,122.4667,Philippines,San Miguel
Philippines,San Miguel,153,Unhealthy,3,Good,19,Good,9,Good,153,Unhealthy,10.0,124.3167,Philippines,Garcia
Philippines,San Miguel,153,Unhealthy,3,Good,19,Good,9,Good,153,Unhealthy,7.65,123.2678,Philippines,Libuganan
Philippines,San Miguel,153,Unhealthy,3,Good,19,Good,9,Good,153,Unhealthy,11.2942,124.83,Philippines,San Miguel
Philippines,San Miguel,153,Unhealthy,3,Good,19,Good,9,Good,153,Unhealthy,11.492,119.871,Philippines,Linapacan
Philippines,San Miguel,153,Unhealthy,3,Good,19,Good,9,Good,153,Unhealthy,13.6411,124.3008,Philippines,San Miguel
United States of America,Santa Monica,116,Unhealthy for Sensitive Groups,3,Good,14,Good,25,Good,116,Unhealthy for Sensitive Groups,34.0235,-118.481,United States,Santa Monica
United States of America,Santa Monica,116,Unhealthy for Sensitive Groups,3,Good,14,Good,25,Good,116,Unhealthy for Sensitive Groups,10.02,126.038,Philippines,Santa Monica
Colombia,Santa Rosa,64,Moderate,1,Good,31,Good,0,Good,64,Moderate,14.3167,121.1167,Philippines,Santa Rosa
Colombia,Santa Rosa,64,Moderate,1,Good,31,Good,0,Good,64,Moderate,38.4458,-122.7067,United States,Santa Rosa
Colombia,Santa Rosa,64,Moderate,1,Good,31,Good,0,Good,64,Moderate,-36.6167,-64.2833,Argentina,Santa Rosa
Colombia,Santa Rosa,64,Moderate,1,Good,31,Good,0,Good,64,Moderate,15.4239,120.9389,Philippines,Santa Rosa
Colombia,Santa Rosa,64,Moderate,1,Good,31,Good,0,Good,64,Moderate,-27.8708,-54.4808,Brazil,Santa Rosa
Colombia,Santa Rosa,64,Moderate,1,Good,31,Good,0,Good,64,Moderate,-3.4522,-79.9617,Ecuador,Santa Rosa
Colombia,Santa Rosa,64,Moderate,1,Good,31,Good,0,Good,64,Moderate,10.4456,-75.3686,Colombia,Santa Rosa de Lima
Colombia,Santa Rosa,64,Moderate,1,Good,31,Good,0,Good,64,Moderate,-26.8667,-56.85,Paraguay,Santa Rosa de Lima
Colombia,Santa Rosa,64,Moderate,1,Good,31,Good,0,Good,64,Moderate,-33.25,-68.15,Argentina,Distrito Ciudad de Santa Rosa
Venezuela (Bolivarian Republic of),Santa Teresa,53,Moderate,1,Good,28,Good,1,Good,53,Moderate,-19.9358,-40.6,Brazil,Santa Teresa
Venezuela (Bolivarian Republic of),Santa Teresa,53,Moderate,1,Good,28,Good,1,Good,53,Moderate,11.8039,-86.1639,Nicaragua,Santa Teresa
Venezuela (Bolivarian Republic of),Santa Teresa,53,Moderate,1,Good,28,Good,1,Good,53,Moderate,-25.0519,-53.6328,Brazil,Santa Tereza do Oeste
Nicaragua,Corinto,69,Moderate,1,Good,14,Good,3,Good,69,Moderate,3.1739,-76.2594,Colombia,Corinto
Nicaragua,Corinto,69,Moderate,1,Good,14,Good,3,Good,69,Moderate,-18.3808,-44.4558,Brazil,Corinto
Nicaragua,Corinto,69,Moderate,1,Good,14,Good,3,Good,69,Moderate,12.4819,-87.1742,Nicaragua,Corinto
Nicaragua,Corinto,69,Moderate,1,Good,14,Good,3,Good,69,Moderate,13.8167,-87.9667,El Salvador,Corinto
Russian Federation,Chita,39,Good,1,Good,39,Good,0,Good,17,Good,52.0333,113.5,Russia,Chita
Russian Federation,Chita,39,Good,1,Good,39,Good,0,Good,17,Good,35.0,136.8667,Japan,Chita
Russian Federation,Chita,39,Good,1,Good,39,Good,0,Good,17,Good,6.1667,-72.4167,Colombia,Chita
Brazil,Pacatuba,31,Good,0,Good,20,Good,1,Good,31,Good,-3.9839,-38.62,Brazil,Pacatuba
Brazil,Pacatuba,31,Good,0,Good,20,Good,1,Good,31,Good,-10.4528,-36.6508,Brazil,Pacatuba
United States of America,Panama City,54,Moderate,1,Good,21,Good,4,Good,54,Moderate,8.9833,-79.5167,Panama,Bella Vista
United States of America,Panama City,54,Moderate,1,Good,21,Good,4,Good,54,Moderate,30.1995,-85.6003,United States,Springfield
United States of America,Weston,50,Good,1,Good,36,Good,3,Good,50,Good,26.1006,-80.4054,United States,Weston
United States of America,Weston,50,Good,1,Good,36,Good,3,Good,50,Good,53.413,-2.798,United Kingdom,Whiston
United States of America,Weston,50,Good,1,Good,36,Good,3,Good,50,Good,44.8906,-89.5487,United States,Village of Weston
United States of America,Weston,50,Good,1,Good,36,Good,3,Good,50,Good,42.3589,-71.3001,United States,Weston
United States of America,Weston,50,Good,1,Good,36,Good,3,Good,50,Good,41.2284,-73.3726,United States,Weston
Papua New Guinea,Wau,17,Good,0,Good,17,Good,0,Good,7,Good,7.7,28.0,South Sudan,Wau
Papua New Guinea,Wau,17,Good,0,Good,17,Good,0,Good,7,Good,-7.3389,146.7167,Papua New Guinea,Wau
Spain,Santander,44,Good,0,Good,44,Good,0,Good,25,Good,43.4628,-3.805,Spain,Santander
Spain,Santander,44,Good,0,Good,44,Good,0,Good,25,Good,9.45,123.3333,Philippines,Santander
United States of America,Monroe,65,Moderate,2,Good,22,Good,14,Good,65,Moderate,32.5185,-92.0774,United States,Monroe
United States of America,Monroe,65,Moderate,2,Good,22,Good,14,Good,65,Moderate,40.3191,-74.4286,United States,Monroe Township
United States of America,Monroe,65,Moderate,2,Good,22,Good,14,Good,65,Moderate,35.0063,-80.5596,United States,Monroe
United States of America,Monroe,65,Moderate,2,Good,22,Good,14,Good,65,Moderate,41.3043,-74.1941,United States,Town of Monroe
United States of America,Monroe,65,Moderate,2,Good,22,Good,14,Good,65,Moderate,41.9155,-83.3849,United States,Monroe
United States of America,Monroe,65,Moderate,2,Good,22,Good,14,Good,65,Moderate,47.8595,-121.9851,United States,Monroe
United States of America,Monroe,65,Moderate,2,Good,22,Good,14,Good,65,Moderate,41.3379,-73.225,United States,Monroe
United States of America,Monroe,65,Moderate,2,Good,22,Good,14,Good,65,Moderate,39.4461,-84.3667,United States,Monroe
United States of America,Monroe,65,Moderate,2,Good,22,Good,14,Good,65,Moderate,33.799,-83.7161,United States,Monroe
United States of America,Monroe,65,Moderate,2,Good,22,Good,14,Good,65,Moderate,42.603,-89.6381,United States,Monroe
United States of America,Mount Vernon,67,Moderate,1,Good,42,Good,2,Good,67,Moderate,40.9136,-73.8291,United States,City of Mount Vernon
United States of America,Mount Vernon,67,Moderate,1,Good,42,Good,2,Good,67,Moderate,48.4203,-122.3115,United States,Mount Vernon
United States of America,Mount Vernon,67,Moderate,1,Good,42,Good,2,Good,67,Moderate,40.3854,-82.4737,United States,Mount Vernon
United States of America,Mount Vernon,67,Moderate,1,Good,42,Good,2,Good,67,Moderate,38.314,-88.9174,United States,Mount Vernon
United States of America,Mount Vernon,67,Moderate,1,Good,42,Good,2,Good,67,Moderate,38.714,-77.1043,United States,Fairfax County
Spain,Tolosa,38,Good,0,Good,38,Good,0,Good,35,Good,11.0633,125.0353,Philippines,Tolosa
Spain,Tolosa,38,Good,0,Good,38,Good,0,Good,35,Good,43.1333,-2.0833,Spain,Tolosa
Philippines,Trento,58,Moderate,1,Good,20,Good,0,Good,58,Moderate,46.0667,11.1167,Italy,Trento
Philippines,Trento,58,Moderate,1,Good,20,Good,0,Good,58,Moderate,8.0459,126.0614,Philippines,Trento
Colombia,La Victoria,80,Moderate,3,Good,1,Good,6,Good,80,Moderate,18.55,-69.9,Dominican Republic,Villa Mella
Colombia,La Victoria,80,Moderate,3,Good,1,Good,6,Good,80,Moderate,10.2278,-67.3336,Venezuela,La Victoria
Colombia,La Victoria,80,Moderate,3,Good,1,Good,6,Good,80,Moderate,4.5214,-76.0364,Colombia,La Victoria
Portugal,Mafra,37,Good,1,Good,37,Good,4,Good,16,Good,38.9411,-9.3319,Portugal,Mafra
Portugal,Mafra,37,Good,1,Good,37,Good,4,Good,16,Good,-26.1108,-49.805,Brazil,Mafra
United States of America,Johnston,41,Good,1,Good,37,Good,2,Good,41,Good,41.8274,-71.5202,United States,Johnston
United States of America,Johnston,41,Good,1,Good,37,Good,2,Good,41,Good,41.691,-93.7234,United States,Johnston
Philippines,Bontoc,26,Good,0,Good,26,Good,0,Good,22,Good,17.09,120.9772,Philippines,Bontoc
Philippines,Bontoc,26,Good,0,Good,26,Good,0,Good,22,Good,10.35,124.9667,Philippines,Bontoc
Germany,Borna,65,Moderate,1,Good,37,Good,2,Good,65,Moderate,51.1167,12.5,Germany,Borna
Germany,Borna,65,Moderate,1,Good,37,Good,2,Good,65,Moderate,25.4373,86.6172,India,Maheshkhunt
United States of America,Brentwood,35,Good,1,Good,29,Good,8,Good,35,Good,40.7839,-73.2522,United States,Brentwood
United States of America,Brentwood,35,Good,1,Good,29,Good,8,Good,35,Good,51.62,0.305,United Kingdom,Brentwood
United States of America,Brentwood,35,Good,1,Good,29,Good,8,Good,35,Good,40.3734,-79.9757,United States,Brentwood
United States of America,Brentwood,35,Good,1,Good,29,Good,8,Good,35,Good,37.9356,-121.719,United States,Brentwood
United States of America,Brentwood,35,Good,1,Good,29,Good,8,Good,35,Good,35.9918,-86.7758,United States,Brentwood
Japan,Hino,34,Good,1,Good,34,Good,3,Good,18,Good,35.6713,139.3951,Japan,Hino
Japan,Hino,34,Good,1,Good,34,Good,3,Good,18,Good,35.018,136.246,Japan,Hino
Japan,Ichikawa,37,Good,1,Good,37,Good,3,Good,31,Good,35.7219,139.9311,Japan,Ichikawa
Japan,Ichikawa,37,Good,1,Good,37,Good,3,Good,31,Good,34.9893,134.7633,Japan,Ichikawa
United States of America,Grafton,78,Moderate,3,Good,10,Good,19,Good,78,Moderate,42.2085,-71.6838,United States,Grafton
United States of America,Grafton,78,Moderate,3,Good,10,Good,19,Good,78,Moderate,43.3204,-87.948,United States,Grafton
United States of America,Grafton,78,Moderate,3,Good,10,Good,19,Good,78,Moderate,-29.6833,152.9333,Australia,Grafton
Canada,Granby,54,Moderate,2,Good,8,Good,8,Good,54,Moderate,45.4,-72.7333,Canada,Granby
Canada,Granby,54,Moderate,2,Good,8,Good,8,Good,54,Moderate,41.9694,-72.8346,United States,Granby
Australia,Griffith,24,Good,0,Good,24,Good,0,Good,10,Good,-34.29,146.04,Australia,Griffith
Australia,Griffith,24,Good,0,Good,24,Good,0,Good,10,Good,41.5277,-87.4239,United States,Griffith
United States of America,Kearney,42,Good,1,Good,30,Good,1,Good,42,Good,40.7011,-99.0833,United States,Kearney
United States of America,Kearney,42,Good,1,Good,30,Good,1,Good,42,Good,39.355,-94.3599,United States,Kearney
Philippines,Tagoloan,54,Moderate,1,Good,18,Good,4,Good,54,Moderate,8.5333,124.75,Philippines,Tagoloan
Philippines,Tagoloan,54,Moderate,1,Good,18,Good,4,Good,54,Moderate,8.1333,124.2667,Philippines,Cabasaran
Philippines,Tagoloan,54,Moderate,1,Good,18,Good,4,Good,54,Moderate,8.1092,124.4392,Philippines,Iligan
Ecuador,Manta,56,Moderate,1,Good,23,Good,0,Good,56,Moderate,-0.95,-80.7162,Ecuador,Manta
Ecuador,Manta,56,Moderate,1,Good,23,Good,0,Good,56,Moderate,10.3564,1.1056,Benin,Tatouta
United States of America,Lockport,68,Moderate,2,Good,20,Good,15,Good,68,Moderate,41.5906,-88.0293,United States,Lockport
United States of America,Lockport,68,Moderate,2,Good,20,Good,15,Good,68,Moderate,43.1698,-78.6956,United States,City of Lockport
Russian Federation,Krasnoslobodsk,39,Good,1,Good,39,Good,1,Good,9,Good,48.7,44.5667,Russia,Krasnoslobodsk
Russian Federation,Krasnoslobodsk,39,Good,1,Good,39,Good,1,Good,9,Good,54.4333,43.8,Russia,Krasnoslobodsk
Guatemala,La Esperanza,79,Moderate,3,Good,6,Good,8,Good,79,Moderate,14.3,-88.1833,Honduras,La Esperanza
Guatemala,La Esperanza,79,Moderate,3,Good,6,Good,8,Good,79,Moderate,14.8719,-91.5619,Guatemala,La Esperanza
Guatemala,La Esperanza,79,Moderate,3,Good,6,Good,8,Good,79,Moderate,7.6392,-73.3358,Colombia,La Esperanza
South Africa,Margate,56,Moderate,1,Good,26,Good,1,Good,56,Moderate,26.2466,-80.2119,United States,Margate
South Africa,Margate,56,Moderate,1,Good,26,Good,1,Good,56,Moderate,51.385,1.3838,United Kingdom,Thanet
South Africa,Margate,56,Moderate,1,Good,26,Good,1,Good,56,Moderate,-30.85,30.3667,South Africa,Hibiscus Coast Local Municipality
United States of America,Austin,97,Moderate,1,Good,19,Good,2,Good,97,Moderate,30.3005,-97.7522,United States,Austin
United States of America,Austin,97,Moderate,1,Good,19,Good,2,Good,97,Moderate,43.6721,-92.9784,United States,Austin
United States of America,Des Moines,59,Moderate,2,Good,18,Good,10,Good,59,Moderate,41.5725,-93.6105,United States,Des Moines
United States of America,Des Moines,59,Moderate,2,Good,18,Good,10,Good,59,Moderate,47.3914,-122.3156,United States,Des Moines
United States of America,Woodmere,71,Moderate,2,Good,40,Good,10,Good,71,Moderate,40.6375,-73.7219,United States,Woodmere
United States of America,Woodmere,71,Moderate,2,Good,40,Good,10,Good,71,Moderate,29.8493,-90.0751,United States,Jefferson Parish
Philippines,San Pedro,56,Moderate,1,Good,25,Good,2,Good,56,Moderate,14.3583,121.0583,Philippines,San Pedro
Philippines,San Pedro,56,Moderate,1,Good,25,Good,2,Good,56,Moderate,25.7578,-102.9831,Mexico,San Pedro de las Colonias
Philippines,San Pedro,56,Moderate,1,Good,25,Good,2,Good,56,Moderate,9.9332,-84.047,Costa Rica,San Pedro
Philippines,San Pedro,56,Moderate,1,Good,25,Good,2,Good,56,Moderate,-33.6794,-59.6669,Argentina,San Pedro
Philippines,San Pedro,56,Moderate,1,Good,25,Good,2,Good,56,Moderate,-24.2196,-64.87,Argentina,San Pedro de Jujuy
Philippines,San Pedro,56,Moderate,1,Good,25,Good,2,Good,56,Moderate,4.0,-76.2292,Colombia,San Pedro
Philippines,San Pedro,56,Moderate,1,Good,25,Good,2,Good,56,Moderate,8.7333,-74.7167,Colombia,Sucre
Philippines,San Pedro,56,Moderate,1,Good,25,Good,2,Good,56,Moderate,17.9214,-87.9611,Belize,San Pedro Town
Philippines,San Pedro,56,Moderate,1,Good,25,Good,2,Good,56,Moderate,-33.8944,-71.4558,Chile,San Pedro
Brazil,Santa Helena,15,Good,0,Good,14,Good,0,Good,15,Good,-2.2308,-45.3,Brazil,Santa Helena
Brazil,Santa Helena,15,Good,0,Good,14,Good,0,Good,15,Good,-24.86,-54.3328,Brazil,Santa Helena
Iran (Islamic Republic of),Rasht,58,Moderate,1,Good,45,Good,0,Good,58,Moderate,37.2808,49.5831,Iran,Rasht
Iran (Islamic Republic of),Rasht,58,Moderate,1,Good,45,Good,0,Good,58,Moderate,39.0167,70.3833,Tajikistan,Askalon
Brazil,Resende,62,Moderate,1,Good,8,Good,4,Good,62,Moderate,-22.4689,-44.4469,Brazil,Resende
Brazil,Resende,62,Moderate,1,Good,8,Good,4,Good,62,Moderate,41.106,-7.964,Portugal,Resende
United States of America,Addison,56,Moderate,1,Good,29,Good,6,Good,56,Moderate,41.9313,-88.0085,United States,Addison
United States of America,Addison,56,Moderate,1,Good,29,Good,6,Good,56,Moderate,32.959,-96.8355,United States,Addison
United States of America,Alamo,106,Unhealthy for Sensitive Groups,2,Good,14,Good,4,Good,106,Unhealthy for Sensitive Groups,26.181,-98.1177,United States,Alamo
United States of America,Alamo,106,Unhealthy for Sensitive Groups,2,Good,14,Good,4,Good,106,Unhealthy for Sensitive Groups,37.8548,-122.0136,United States,Alamo
United States of America,Alpine,163,Unhealthy,5,Good,4,Good,25,Good,163,Unhealthy,32.8439,-116.7585,United States,Alpine
United States of America,Alpine,163,Unhealthy,5,Good,4,Good,25,Good,163,Unhealthy,40.4629,-111.7724,United States,Alpine
Brazil,Parnamirim,24,Good,0,Good,20,Good,1,Good,24,Good,-5.9167,-35.25,Brazil,Parnamirim
Brazil,Parnamirim,24,Good,0,Good,20,Good,1,Good,24,Good,-8.0908,-39.5778,Brazil,Parnamirim
Italy,Patti,56,Moderate,1,Good,46,Good,0,Good,56,Moderate,31.28,74.86,India,Patti
Italy,Patti,56,Moderate,1,Good,46,Good,0,Good,56,Moderate,38.1389,14.9648,Italy,Patti
United States of America,Payson,57,Moderate,1,Good,30,Good,4,Good,57,Moderate,40.0355,-111.739,United States,Payson
United States of America,Payson,57,Moderate,1,Good,30,Good,4,Good,57,Moderate,34.2433,-111.3195,United States,Payson
United States of America,Berkley,85,Moderate,2,Good,18,Good,18,Good,85,Moderate,42.4986,-83.1853,United States,Berkley
United States of America,Berkley,85,Moderate,2,Good,18,Good,18,Good,85,Moderate,39.8045,-105.0281,United States,Zuni
United States of America,Centralia,60,Moderate,2,Good,16,Good,15,Good,60,Moderate,46.7223,-122.9696,United States,Centralia
United States of America,Centralia,60,Moderate,2,Good,16,Good,15,Good,60,Moderate,38.5224,-89.1232,United States,Centralia
United States of America,Bowling Green,74,Moderate,2,Good,24,Good,11,Good,74,Moderate,36.9716,-86.4378,United States,Bowling Green
United States of America,Bowling Green,74,Moderate,2,Good,24,Good,11,Good,74,Moderate,41.3776,-83.6495,United States,Bowling Green
New Zealand,Nelson,14,Good,0,Good,12,Good,1,Good,14,Good,-41.2708,173.2839,New Zealand,Nelson
New Zealand,Nelson,14,Good,0,Good,12,Good,1,Good,14,Good,53.8346,-2.218,United Kingdom,Borough of Pendle
New Zealand,Nelson,14,Good,0,Good,12,Good,1,Good,14,Good,49.5,-117.2833,Canada,Nelson
United States of America,Norfolk,34,Good,1,Good,34,Good,8,Good,26,Good,36.8945,-76.259,United States,Norfolk
United States of America,Norfolk,34,Good,1,Good,34,Good,8,Good,26,Good,42.0324,-97.4217,United States,Norfolk
United States of America,Norfolk,34,Good,1,Good,34,Good,8,Good,26,Good,42.1163,-71.3295,United States,Norfolk
Serbia,Novi Pazar,71,Moderate,1,Good,43,Good,0,Good,71,Moderate,43.15,20.5167,Serbia,Novi Pazar
Serbia,Novi Pazar,71,Moderate,1,Good,43,Good,0,Good,71,Moderate,43.35,27.2,Bulgaria,Novi Pazar
United States of America,Cicero,50,Good,2,Good,33,Good,9,Good,50,Good,41.8445,-87.7593,United States,Cicero
United States of America,Cicero,50,Good,2,Good,33,Good,9,Good,50,Good,43.1662,-76.0662,United States,Town of Cicero
United States of America,Abington,63,Moderate,2,Good,18,Good,16,Good,63,Moderate,40.1108,-75.1146,United States,Abington Township
United States of America,Abington,63,Moderate,2,Good,18,Good,16,Good,63,Moderate,42.118,-70.959,United States,Abington
United States of America,Albany,41,Good,1,Good,15,Good,8,Good,41,Good,42.6664,-73.7987,United States,City of Albany
United States of America,Albany,41,Good,1,Good,15,Good,8,Good,41,Good,37.8897,-122.3018,United States,Albany
United States of America,Albany,41,Good,1,Good,15,Good,8,Good,41,Good,31.5776,-84.1762,United States,Albany
United States of America,Albany,41,Good,1,Good,15,Good,8,Good,41,Good,44.6272,-123.0965,United States,Albany
United States of America,Albany,41,Good,1,Good,15,Good,8,Good,41,Good,-35.0228,117.8814,Australia,Albany
United States of America,Canyon Lake,66,Moderate,2,Good,5,Good,19,Good,66,Moderate,29.8761,-98.2611,United States,Comal County
United States of America,Canyon Lake,66,Moderate,2,Good,5,Good,19,Good,66,Moderate,33.6885,-117.2621,United States,Canyon Lake
Chile,Castro,18,Good,0,Good,18,Good,1,Good,10,Good,-24.7908,-50.0119,Brazil,Castro
Chile,Castro,18,Good,0,Good,18,Good,1,Good,10,Good,-42.4667,-73.8,Chile,Castro
United States of America,Celina,39,Good,1,Good,29,Good,6,Good,39,Good,33.3154,-96.7941,United States,Celina
United States of America,Celina,39,Good,1,Good,29,Good,6,Good,39,Good,40.555,-84.5626,United States,Celina
United States of America,Bayonne,107,Unhealthy for Sensitive Groups,3,Good,16,Good,26,Good,107,Unhealthy for Sensitive Groups,40.6668,-74.1158,United States,Bayonne
United States of America,Bayonne,107,Unhealthy for Sensitive Groups,3,Good,16,Good,26,Good,107,Unhealthy for Sensitive Groups,43.49,-1.48,France,Bayonne
United Kingdom of Great Britain and Northern Ireland,Cambridge,30,Good,1,Good,30,Good,3,Good,14,Good,43.3972,-80.3114,Canada,Cambridge
United Kingdom of Great Britain and Northern Ireland,Cambridge,30,Good,1,Good,30,Good,3,Good,14,Good,52.2053,0.1192,United Kingdom,Cambridge
United Kingdom of Great Britain and Northern Ireland,Cambridge,30,Good,1,Good,30,Good,3,Good,14,Good,42.3759,-71.1185,United States,Cambridge
United Kingdom of Great Britain and Northern Ireland,Cambridge,30,Good,1,Good,30,Good,3,Good,14,Good,-37.8833,175.4667,New Zealand,Cambridge
United Kingdom of Great Britain and Northern Ireland,Cambridge,30,Good,1,Good,30,Good,3,Good,14,Good,38.5515,-76.0787,United States,Cambridge
United Kingdom of Great Britain and Northern Ireland,Cambridge,30,Good,1,Good,30,Good,3,Good,14,Good,40.0221,-81.5869,United States,Cambridge
United Kingdom of Great Britain and Northern Ireland,Cambridge,30,Good,1,Good,30,Good,3,Good,14,Good,45.5612,-93.2283,United States,Cambridge
India,Tura,75,Moderate,2,Good,23,Good,4,Good,75,Moderate,25.52,90.22,India,Gambegre
India,Tura,75,Moderate,2,Good,23,Good,4,Good,75,Moderate,64.2833,100.2167,Russia,Tura
United States of America,Franklin,48,Good,1,Good,43,Good,1,Good,48,Good,35.92,-86.8516,United States,Franklin
United States of America,Franklin,48,Good,1,Good,43,Good,1,Good,48,Good,40.4759,-74.5515,United States,Franklin Township
United States of America,Franklin,48,Good,1,Good,43,Good,1,Good,48,Good,42.8854,-88.0104,United States,Franklin
United States of America,Franklin,48,Good,1,Good,43,Good,1,Good,48,Good,42.0862,-71.4113,United States,Franklin
United States of America,Franklin,48,Good,1,Good,43,Good,1,Good,48,Good,39.4948,-86.0544,United States,Franklin
United States of America,Franklin,48,Good,1,Good,43,Good,1,Good,48,Good,39.5954,-75.019,United States,Franklin Township
United States of America,Franklin,48,Good,1,Good,43,Good,1,Good,48,Good,39.5538,-84.2952,United States,Franklin
United States of America,Franklin,48,Good,1,Good,43,Good,1,Good,48,Good,36.7177,-86.5595,United States,Franklin
United States of America,Franklin,48,Good,1,Good,43,Good,1,Good,48,Good,43.4499,-71.6691,United States,Franklin
United States of America,Garden City,58,Moderate,1,Good,46,Good,5,Good,58,Moderate,37.9753,-100.8527,United States,Garden City
United States of America,Garden City,58,Moderate,1,Good,46,Good,5,Good,58,Moderate,42.3244,-83.3412,United States,Garden City
United States of America,Garden City,58,Moderate,1,Good,46,Good,5,Good,58,Moderate,40.7266,-73.6447,United States,Village of Garden City
United States of America,Garden City,58,Moderate,1,Good,46,Good,5,Good,58,Moderate,43.6526,-116.2743,United States,Ada County
United States of America,Garden City,58,Moderate,1,Good,46,Good,5,Good,58,Moderate,33.5926,-79.0071,United States,Garden City Beach
United States of America,Garden City,58,Moderate,1,Good,46,Good,5,Good,58,Moderate,32.0867,-81.1773,United States,Garden City
United States of America,Derby,51,Moderate,1,Good,48,Good,2,Good,51,Moderate,52.9217,-1.4767,United Kingdom,Derby
United States of America,Derby,51,Moderate,1,Good,48,Good,2,Good,51,Moderate,39.84,-104.9172,United States,Commerce City
United States of America,Derby,51,Moderate,1,Good,48,Good,2,Good,51,Moderate,37.5571,-97.2551,United States,Derby
United States of America,Derby,51,Moderate,1,Good,48,Good,2,Good,51,Moderate,41.3265,-73.0833,United States,Derby
United States of America,Dublin,43,Good,1,Good,41,Good,1,Good,43,Good,53.35,-6.2603,Ireland,Dublin
United States of America,Dublin,43,Good,1,Good,41,Good,1,Good,43,Good,37.7161,-121.8963,United States,Dublin
United States of America,Dublin,43,Good,1,Good,41,Good,1,Good,43,Good,40.1112,-83.1454,United States,Dublin
United States of America,Dublin,43,Good,1,Good,41,Good,1,Good,43,Good,32.536,-82.928,United States,Dublin
United Kingdom of Great Britain and Northern Ireland,Dundee,38,Good,1,Good,38,Good,0,Good,29,Good,56.462,-2.9707,United Kingdom,Dundee
United Kingdom of Great Britain and Northern Ireland,Dundee,38,Good,1,Good,38,Good,0,Good,29,Good,-28.1725,30.2314,South Africa,Endumeni Local Municipality
Honduras,El Progreso,76,Moderate,1,Good,22,Good,0,Good,76,Moderate,15.4,-87.8,Honduras,El Progreso
Honduras,El Progreso,76,Moderate,1,Good,22,Good,0,Good,76,Moderate,14.35,-89.85,Guatemala,El Progreso
United States of America,Spencer,48,Good,1,Good,43,Good,1,Good,48,Good,42.2471,-71.9919,United States,Spencer
United States of America,Spencer,48,Good,1,Good,43,Good,1,Good,48,Good,43.1468,-95.1534,United States,Spencer
United States of America,Plainfield,52,Moderate,1,Good,40,Good,2,Good,52,Moderate,40.6154,-74.4157,United States,Plainfield
United States of America,Plainfield,52,Moderate,1,Good,40,Good,2,Good,52,Moderate,41.6207,-88.2253,United States,Plainfield
United States of America,Plainfield,52,Moderate,1,Good,40,Good,2,Good,52,Moderate,39.6954,-86.3716,United States,Plainfield
United States of America,Plainfield,52,Moderate,1,Good,40,Good,2,Good,52,Moderate,41.6992,-71.8987,United States,Plainfield
India,Ponneri,145,Unhealthy for Sensitive Groups,4,Good,37,Good,7,Good,145,Unhealthy for Sensitive Groups,13.32,80.2,India,Ponneri
India,Ponneri,145,Unhealthy for Sensitive Groups,4,Good,37,Good,7,Good,145,Unhealthy for Sensitive Groups,12.5972,78.5979,India,Reddiyūr
United States of America,Ramsey,51,Moderate,1,Good,32,Good,1,Good,51,Moderate,45.2617,-93.4494,United States,Ramsey
United States of America,Ramsey,51,Moderate,1,Good,32,Good,1,Good,51,Moderate,41.0595,-74.1454,United States,Ramsey
United States of America,Rehoboth,50,Good,1,Good,44,Good,2,Good,50,Good,-23.3167,17.0833,Namibia,Rehoboth
United States of America,Rehoboth,50,Good,1,Good,44,Good,2,Good,50,Good,41.8439,-71.2456,United States,Rehoboth
United States of America,Riverside,95,Moderate,3,Good,23,Good,17,Good,95,Moderate,33.9381,-117.3949,United States,Riverside
United States of America,Riverside,95,Moderate,3,Good,23,Good,17,Good,95,Moderate,39.7835,-84.1219,United States,Riverside
United States of America,Riverside,95,Moderate,3,Good,23,Good,17,Good,95,Moderate,41.831,-87.8169,United States,Riverside
United States of America,Riverside,95,Moderate,3,Good,23,Good,17,Good,95,Moderate,41.0318,-73.5827,United States,Greenwich
Ecuador,Rocafuerte,50,Good,1,Good,23,Good,0,Good,50,Good,-0.92,-80.46,Ecuador,Rocafuerte
Ecuador,Rocafuerte,50,Good,1,Good,23,Good,0,Good,50,Good,-0.9329,-75.4,Ecuador,Aguarico
Spain,Palma,42,Good,1,Good,42,Good,0,Good,31,Good,39.5667,2.65,Spain,Palma
Spain,Palma,42,Good,1,Good,42,Good,0,Good,31,Good,-10.7758,40.4667,Mozambique,Palma Sede
Cuba,Palmira,43,Good,1,Good,34,Good,0,Good,43,Good,3.5833,-76.25,Colombia,Palmira
Cuba,Palmira,43,Good,1,Good,34,Good,0,Good,43,Good,22.2444,-80.3944,Cuba,Palmira
Guatemala,Comalapa,65,Moderate,2,Good,18,Good,3,Good,65,Moderate,15.6602,-92.1411,Mexico,Frontera Comalapa
Guatemala,Comalapa,65,Moderate,2,Good,18,Good,3,Good,65,Moderate,12.2842,-85.5106,Nicaragua,Comalapa
France,Marly,54,Moderate,1,Good,42,Good,1,Good,54,Moderate,50.3489,3.5442,France,Marly
France,Marly,54,Moderate,1,Good,42,Good,1,Good,54,Moderate,49.0611,6.1497,France,Marly
United States of America,Marshfield,42,Good,1,Good,26,Good,3,Good,42,Good,42.114,-70.7151,United States,Marshfield
United States of America,Marshfield,42,Good,1,Good,26,Good,3,Good,42,Good,44.6627,-90.1728,United States,Marshfield
Gabon,Moanda,78,Moderate,3,Good,15,Good,0,Good,78,Moderate,-5.9342,12.3494,Democratic Republic of the Congo,Moanda
Gabon,Moanda,78,Moderate,3,Good,15,Good,0,Good,78,Moderate,-1.5667,13.2,Gabon,Moanda
Portugal,Montijo,31,Good,1,Good,31,Good,4,Good,28,Good,38.6833,-8.9,Portugal,Alcochete
Portugal,Montijo,31,Good,1,Good,31,Good,4,Good,28,Good,38.91,-6.6175,Spain,Montijo
China,Dali,25,Good,1,Good,17,Good,1,Good,25,Good,25.6808,100.3003,China,Dali City
China,Dali,25,Good,1,Good,17,Good,1,Good,25,Good,34.7953,109.9378,China,Weinan City
United States of America,La Palma,85,Moderate,3,Good,22,Good,19,Good,85,Moderate,33.8504,-118.0407,United States,La Palma
United States of America,La Palma,85,Moderate,3,Good,22,Good,19,Good,85,Moderate,8.41,-78.15,Panama,La Palma
United States of America,La Palma,85,Moderate,3,Good,22,Good,19,Good,85,Moderate,22.7472,-83.5525,Cuba,La Palma
United States of America,La Palma,85,Moderate,3,Good,22,Good,19,Good,85,Moderate,14.3167,-89.1667,El Salvador,San Ignacio
United States of America,La Palma,85,Moderate,3,Good,22,Good,19,Good,85,Moderate,5.3606,-74.3897,Colombia,La Palma
United States of America,Lewisville,71,Moderate,2,Good,30,Good,6,Good,71,Moderate,33.0454,-96.9815,United States,Lewisville
United States of America,Lewisville,71,Moderate,2,Good,30,Good,6,Good,71,Moderate,36.103,-80.4166,United States,Lewisville
Mexico,Linares,52,Moderate,1,Good,24,Good,0,Good,52,Moderate,24.8597,-99.5647,Mexico,Linares
Mexico,Linares,52,Moderate,1,Good,24,Good,0,Good,52,Moderate,-35.85,-71.6,Chile,Linares
Mexico,Linares,52,Moderate,1,Good,24,Good,0,Good,52,Moderate,38.0833,-3.6333,Spain,Linares
Mexico,Linares,52,Moderate,1,Good,24,Good,0,Good,52,Moderate,1.35,-77.5333,Colombia,Linares
United States of America,Longview,46,Good,1,Good,37,Good,4,Good,46,Good,32.5193,-94.7622,United States,Longview
United States of America,Longview,46,Good,1,Good,37,Good,4,Good,46,Good,46.1461,-122.963,United States,Longview
United States of America,Scottsdale,50,Good,1,Good,20,Good,15,Good,50,Good,33.6872,-111.8651,United States,Scottsdale
United States of America,Scottsdale,50,Good,1,Good,20,Good,15,Good,50,Good,-41.1667,147.5167,Australia,Scottsdale
Colombia,Sevilla,71,Moderate,2,Good,2,Good,5,Good,71,Moderate,37.24,-5.99,Spain,Coria del Río
Colombia,Sevilla,71,Moderate,2,Good,2,Good,5,Good,71,Moderate,4.2689,-75.9361,Colombia,Sevilla
Colombia,Sevilla,71,Moderate,2,Good,2,Good,5,Good,71,Moderate,9.7,124.05,Philippines,Licolico
China,Shaoyang,159,Unhealthy,4,Good,159,Unhealthy,4,Good,108,Unhealthy for Sensitive Groups,27.2418,111.4725,China,Shuangqing
China,Shaoyang,159,Unhealthy,4,Good,159,Unhealthy,4,Good,108,Unhealthy for Sensitive Groups,32.9387,119.8404,China,Xinghua
United States of America,Stratford,87,Moderate,4,Good,5,Good,39,Good,87,Moderate,51.5423,-0.0026,United Kingdom,London
United States of America,Stratford,87,Moderate,4,Good,5,Good,39,Good,87,Moderate,-39.3333,174.2833,New Zealand,Stratford
United States of America,Stratford,87,Moderate,4,Good,5,Good,39,Good,87,Moderate,41.207,-73.1305,United States,Stratford
United States of America,Stratford,87,Moderate,4,Good,5,Good,39,Good,87,Moderate,43.3708,-80.9819,Canada,Stratford
United States of America,Stratford,87,Moderate,4,Good,5,Good,39,Good,87,Moderate,46.2167,-63.0893,Canada,Stratford
Bolivia (Plurinational State of),Sucre,14,Good,0,Good,6,Good,0,Good,14,Good,-19.0475,-65.26,Bolivia,Sucre
Bolivia (Plurinational State of),Sucre,14,Good,0,Good,6,Good,0,Good,14,Good,-1.26,-80.44,Ecuador,Cerro del Cady en Medio
Bolivia (Plurinational State of),Sucre,14,Good,0,Good,6,Good,0,Good,14,Good,8.8139,-74.7253,Colombia,Sucre
Bolivia (Plurinational State of),Sucre,14,Good,0,Good,6,Good,0,Good,14,Good,5.923,-73.795,Colombia,Sucre
Bolivia (Plurinational State of),Sucre,14,Good,0,Good,6,Good,0,Good,14,Good,2.0333,-76.9167,Colombia,Sucre
Costa Rica,San Diego,56,Moderate,2,Good,5,Good,11,Good,56,Moderate,32.8313,-117.1222,United States,San Diego
Costa Rica,San Diego,56,Moderate,2,Good,5,Good,11,Good,56,Moderate,10.2558,-67.9539,Venezuela,San Diego
Costa Rica,San Diego,56,Moderate,2,Good,5,Good,11,Good,56,Moderate,10.3375,-73.1825,Colombia,San Diego
Venezuela (Bolivarian Republic of),San Mateo,58,Moderate,1,Good,15,Good,7,Good,58,Moderate,14.6969,121.1219,Philippines,San Mateo
Venezuela (Bolivarian Republic of),San Mateo,58,Moderate,1,Good,15,Good,7,Good,58,Moderate,37.5522,-122.3121,United States,San Mateo
Venezuela (Bolivarian Republic of),San Mateo,58,Moderate,1,Good,15,Good,7,Good,58,Moderate,16.8833,121.5833,Philippines,San Mateo
Venezuela (Bolivarian Republic of),San Mateo,58,Moderate,1,Good,15,Good,7,Good,58,Moderate,9.74,-64.5531,Venezuela,San Mateo
Brazil,Santa Luzia,20,Good,0,Good,16,Good,0,Good,20,Good,-19.77,-43.8506,Brazil,Santa Luzia
Brazil,Santa Luzia,20,Good,0,Good,16,Good,0,Good,20,Good,-6.8719,-36.9189,Brazil,Santa Luzia
Brazil,Santa Luzia,20,Good,0,Good,16,Good,0,Good,20,Good,-15.4289,-39.3339,Brazil,Santa Luzia
United States of America,Beaumont,68,Moderate,2,Good,34,Good,6,Good,68,Moderate,30.0849,-94.1451,United States,Beaumont
United States of America,Beaumont,68,Moderate,2,Good,34,Good,6,Good,68,Moderate,45.7517,3.0831,France,Beaumont
United States of America,Beaumont,68,Moderate,2,Good,34,Good,6,Good,68,Moderate,33.9076,-116.9766,United States,Riverside County
United States of America,Beaumont,68,Moderate,2,Good,34,Good,6,Good,68,Moderate,53.3572,-113.4147,Canada,Beaumont
United States of America,Beaumont,68,Moderate,2,Good,34,Good,6,Good,68,Moderate,18.4833,-73.9667,Haiti,Commune Beaumont
Mauritius,Bel Air,60,Moderate,1,Good,27,Good,0,Good,60,Moderate,-20.2582,57.7545,Mauritius,Bel Air Rivière Sèche
Mauritius,Bel Air,60,Moderate,1,Good,27,Good,0,Good,60,Moderate,39.5348,-76.346,United States,Bel Air
Mexico,Buenos Aires,43,Good,1,Good,28,Good,0,Good,43,Good,-34.5997,-58.3819,Argentina,Buenos Aires
Mexico,Buenos Aires,43,Good,1,Good,28,Good,0,Good,43,Good,2.9167,-76.6667,Colombia,Suárez
Mexico,Buenos Aires,43,Good,1,Good,28,Good,0,Good,43,Good,9.1985,-83.2816,Costa Rica,Buenos Aires
Mexico,Buenos Aires,43,Good,1,Good,28,Good,0,Good,43,Good,-7.7258,-35.3269,Brazil,Buenos Aires
United States of America,Cary,55,Moderate,1,Good,30,Good,3,Good,55,Moderate,35.7819,-78.8195,United States,Cary
United States of America,Cary,55,Moderate,1,Good,30,Good,3,Good,55,Moderate,42.2129,-88.2494,United States,Cary
United States of America,Clifton,52,Moderate,1,Good,46,Good,2,Good,52,Moderate,40.863,-74.1575,United States,Clifton
United States of America,Clifton,52,Moderate,1,Good,46,Good,2,Good,52,Moderate,52.904,-1.177,United Kingdom,Nottingham
United States of America,Clifton,52,Moderate,1,Good,46,Good,2,Good,52,Moderate,53.9721,-1.0979,United Kingdom,York
United States of America,Clifton,52,Moderate,1,Good,46,Good,2,Good,52,Moderate,39.0764,-108.4605,United States,Grand Junction
United States of America,Oviedo,59,Moderate,1,Good,12,Good,15,Good,59,Moderate,43.36,-5.845,Spain,Oviedo
United States of America,Oviedo,59,Moderate,1,Good,12,Good,15,Good,59,Moderate,28.658,-81.1872,United States,Oviedo
Italy,Paola,64,Moderate,1,Good,48,Good,1,Good,64,Moderate,35.8728,14.5075,Malta,Paola
Italy,Paola,64,Moderate,1,Good,48,Good,1,Good,64,Moderate,39.3667,16.0333,Italy,Paola
United States of America,Peru,63,Moderate,2,Good,19,Good,14,Good,63,Moderate,40.7593,-86.0756,United States,Peru
United States of America,Peru,63,Moderate,2,Good,19,Good,14,Good,63,Moderate,41.3482,-89.1371,United States,Peru
Italy,Palermo,61,Moderate,1,Good,51,Moderate,0,Good,61,Moderate,2.8917,-75.4375,Colombia,Palermo
Italy,Palermo,61,Moderate,1,Good,51,Moderate,0,Good,61,Moderate,38.1157,13.3613,Italy,Palermo
United States of America,Redlands,96,Moderate,3,Good,23,Good,13,Good,96,Moderate,34.0512,-117.1712,United States,Redlands
United States of America,Redlands,96,Moderate,3,Good,23,Good,13,Good,96,Moderate,39.0886,-108.6582,United States,Grand Junction
China,Rongcheng,143,Unhealthy for Sensitive Groups,4,Good,4,Good,23,Good,143,Unhealthy for Sensitive Groups,26.2312,104.0966,China,Xuanwei City
China,Rongcheng,143,Unhealthy for Sensitive Groups,4,Good,4,Good,23,Good,143,Unhealthy for Sensitive Groups,29.8239,112.9019,China,Jianli City
China,Rongcheng,143,Unhealthy for Sensitive Groups,4,Good,4,Good,23,Good,143,Unhealthy for Sensitive Groups,39.05,115.8657,China,Rongcheng County
United States of America,Madison Heights,55,Moderate,1,Good,34,Good,1,Good,55,Moderate,42.5073,-83.1034,United States,Madison Heights
United States of America,Madison Heights,55,Moderate,1,Good,34,Good,1,Good,55,Moderate,37.4487,-79.1057,United States,Madison Heights
United States of America,Commerce,117,Unhealthy for Sensitive Groups,3,Good,17,Good,26,Good,117,Unhealthy for Sensitive Groups,33.9963,-118.1519,United States,Commerce
United States of America,Commerce,117,Unhealthy for Sensitive Groups,3,Good,17,Good,26,Good,117,Unhealthy for Sensitive Groups,33.2421,-95.8992,United States,Commerce
Philippines,Pili,72,Moderate,1,Good,20,Good,1,Good,72,Moderate,13.7177,123.7448,Philippines,Pili
Philippines,Pili,72,Moderate,1,Good,20,Good,1,Good,72,Moderate,13.5561,123.2756,Philippines,Pili
Panama,San Miguelito,61,Moderate,1,Good,28,Good,3,Good,61,Moderate,9.033,-79.5,Panama,Panama City
Panama,San Miguelito,61,Moderate,1,Good,28,Good,3,Good,61,Moderate,11.4025,-84.9003,Nicaragua,San Miguelito
United States of America,Bainbridge,59,Moderate,2,Good,25,Good,4,Good,59,Moderate,30.9052,-84.5732,United States,Bainbridge
United States of America,Bainbridge,59,Moderate,2,Good,25,Good,4,Good,59,Moderate,41.3855,-81.3478,United States,Bainbridge
India,Bangaon,62,Moderate,1,Good,38,Good,1,Good,62,Moderate,23.0435,88.8318,India,Bangaon
India,Bangaon,62,Moderate,1,Good,38,Good,1,Good,62,Moderate,25.8673,86.5115,India,Bangaon
India,Bangaon,62,Moderate,1,Good,38,Good,1,Good,62,Moderate,26.3081,87.8833,India,Bahadurganj
Philippines,Bangar,30,Good,1,Good,30,Good,0,Good,19,Good,4.7086,115.0739,Brunei,Bangar
Philippines,Bangar,30,Good,1,Good,30,Good,0,Good,19,Good,16.9,120.4167,Philippines,Bangar
United States of America,Ashland,76,Moderate,2,Good,36,Good,7,Good,76,Moderate,37.6942,-122.1159,United States,Ashland
United States of America,Ashland,76,Moderate,2,Good,36,Good,7,Good,76,Moderate,38.4592,-82.6448,United States,Ashland
United States of America,Ashland,76,Moderate,2,Good,36,Good,7,Good,76,Moderate,42.1905,-122.6992,United States,Ashland
United States of America,Ashland,76,Moderate,2,Good,36,Good,7,Good,76,Moderate,40.8668,-82.3156,United States,Ashland
United States of America,Ashland,76,Moderate,2,Good,36,Good,7,Good,76,Moderate,42.2573,-71.4687,United States,Ashland
United States of America,Ashland,76,Moderate,2,Good,36,Good,7,Good,76,Moderate,39.8782,-75.0085,United States,Cherry Hill Township
Philippines,Bacolod,38,Good,1,Good,19,Good,0,Good,38,Good,10.6765,122.9509,Philippines,Bacolod
Philippines,Bacolod,38,Good,1,Good,19,Good,0,Good,38,Good,8.1892,124.0238,Philippines,Bacolod
Netherlands,Soest,30,Good,1,Good,26,Good,5,Good,30,Good,51.5711,8.1092,Germany,Soest
Netherlands,Soest,30,Good,1,Good,26,Good,5,Good,30,Good,52.1833,5.3,Netherlands,Soest
Brazil,Soledade,17,Good,0,Good,11,Good,2,Good,17,Good,-28.8178,-52.51,Brazil,Soledade
Brazil,Soledade,17,Good,0,Good,11,Good,2,Good,17,Good,-7.0569,-36.3628,Brazil,Soledade
Japan,Tateyama,44,Good,1,Good,44,Good,1,Good,43,Good,34.9966,139.87,Japan,Tateyama
Japan,Tateyama,44,Good,1,Good,44,Good,1,Good,43,Good,36.6636,137.3137,Japan,Tateyama
Argentina,La Plata,43,Good,1,Good,12,Good,8,Good,43,Good,-34.9211,-57.9544,Argentina,La Plata
Argentina,La Plata,43,Good,1,Good,12,Good,8,Good,43,Good,2.39,-75.9075,Colombia,La Plata
Argentina,La Plata,43,Good,1,Good,12,Good,8,Good,43,Good,38.5352,-76.97,United States,La Plata
United States of America,Lancaster,41,Good,1,Good,41,Good,3,Good,32,Good,40.042,-76.3012,United States,Lancaster
United States of America,Lancaster,41,Good,1,Good,41,Good,3,Good,32,Good,34.6935,-118.1753,United States,Lancaster
United States of America,Lancaster,41,Good,1,Good,41,Good,3,Good,32,Good,54.0489,-2.8014,United Kingdom,Lancaster
United States of America,Lancaster,41,Good,1,Good,41,Good,3,Good,32,Good,42.9099,-78.6378,United States,Town of Lancaster
United States of America,Lancaster,41,Good,1,Good,41,Good,3,Good,32,Good,32.5922,-96.7739,United States,Lancaster
United States of America,Lancaster,41,Good,1,Good,41,Good,3,Good,32,Good,39.7248,-82.6049,United States,Lancaster
Guyana,Linden,34,Good,1,Good,16,Good,0,Good,34,Good,6.0,-58.3,Guyana,Linden
Guyana,Linden,34,Good,1,Good,16,Good,0,Good,34,Good,40.6251,-74.2383,United States,Linden
United States of America,Live Oak,30,Good,1,Good,18,Good,2,Good,30,Good,36.986,-121.9804,United States,Live Oak
United States of America,Live Oak,30,Good,1,Good,18,Good,2,Good,30,Good,29.5545,-98.3404,United States,Live Oak
Italy,Loreto,57,Moderate,2,Good,36,Good,10,Good,57,Moderate,22.2667,-101.9833,Mexico,Loreto
Italy,Loreto,57,Moderate,2,Good,36,Good,10,Good,57,Moderate,26.0128,-111.3433,Mexico,Loreto
Italy,Loreto,57,Moderate,2,Good,36,Good,10,Good,57,Moderate,8.1856,125.8538,Philippines,Loreto
Italy,Loreto,57,Moderate,2,Good,36,Good,10,Good,57,Moderate,43.4389,13.6086,Italy,Loreto
Italy,Loreto,57,Moderate,2,Good,36,Good,10,Good,57,Moderate,-7.0839,-45.1408,Brazil,Loreto
Italy,Loreto,57,Moderate,2,Good,36,Good,10,Good,57,Moderate,10.3586,125.5816,Philippines,Loreto
India,Delhi,500,Hazardous,1,Good,44,Good,2,Good,446,Hazardous,28.61,77.23,India,New Delhi
India,Delhi,500,Hazardous,1,Good,44,Good,2,Good,446,Hazardous,37.4306,-120.7759,United States,Delhi
Russian Federation,Dimitrovgrad,31,Good,0,Good,30,Good,0,Good,31,Good,54.1833,49.5833,Russia,Melekessky District
Russian Federation,Dimitrovgrad,31,Good,0,Good,30,Good,0,Good,31,Good,43.0167,22.7833,Serbia,Dimitrovgrad Municipality
Russian Federation,Dimitrovgrad,31,Good,0,Good,30,Good,0,Good,31,Good,42.05,25.6,Bulgaria,Dimitrovgrad
United States of America,Douglas,77,Moderate,2,Good,14,Good,7,Good,77,Moderate,54.145,-4.482,Isle of Man,Douglas
United States of America,Douglas,77,Moderate,2,Good,14,Good,7,Good,77,Moderate,51.8764,-8.4358,Ireland,Cork
United States of America,Douglas,77,Moderate,2,Good,14,Good,7,Good,77,Moderate,31.3602,-109.5394,United States,Cochise County
United States of America,Douglas,77,Moderate,2,Good,14,Good,7,Good,77,Moderate,31.5065,-82.8544,United States,Douglas
United States of America,Douglas,77,Moderate,2,Good,14,Good,7,Good,77,Moderate,42.0524,-71.7515,United States,Douglas
United States of America,Durango,500,Hazardous,133,Unhealthy for Sensitive Groups,0,Good,53,Moderate,500,Hazardous,24.025,-104.6675,Mexico,Durango
United States of America,Durango,500,Hazardous,133,Unhealthy for Sensitive Groups,0,Good,53,Moderate,500,Hazardous,43.1689,-2.63,Spain,Durango
United States of America,Durango,500,Hazardous,133,Unhealthy for Sensitive Groups,0,Good,53,Moderate,500,Hazardous,37.2659,-107.8781,United States,Durango
United Kingdom of Great Britain and Northern Ireland,Durham,56,Moderate,0,Good,31,Good,1,Good,56,Moderate,35.9792,-78.9022,United States,Durham
United Kingdom of Great Britain and Northern Ireland,Durham,56,Moderate,0,Good,31,Good,1,Good,56,Moderate,54.7761,-1.5733,United Kingdom,Durham
United Kingdom of Great Britain and Northern Ireland,Durham,56,Moderate,0,Good,31,Good,1,Good,56,Moderate,43.1174,-70.9194,United States,Durham
United States of America,Fairfield,42,Good,1,Good,28,Good,8,Good,42,Good,38.2583,-122.0335,United States,Fairfield
United States of America,Fairfield,42,Good,1,Good,28,Good,8,Good,42,Good,41.1775,-73.2733,United States,Fairfield
United States of America,Fairfield,42,Good,1,Good,28,Good,8,Good,42,Good,39.3301,-84.5409,United States,Fairfield
United States of America,Fairfield,42,Good,1,Good,28,Good,8,Good,42,Good,33.4747,-86.9194,United States,Fairfield
